,Unnamed: 0,codigo_ocorrencia,codigo_ocorrencia1,codigo_ocorrencia2,codigo_ocorrencia3,codigo_ocorrencia4,ocorrencia_classificacao,ocorrencia_latitude,ocorrencia_longitude,ocorrencia_cidade,ocorrencia_uf,ocorrencia_pais,ocorrencia_aerodromo,ocorrencia_dia,ocorrencia_hora,investigacao_aeronave_liberada,investigacao_status,divulgacao_relatorio_numero,divulgacao_relatorio_publicado,divulgacao_dia_publicacao,total_recomendacoes,total_aeronaves_envolvidas,ocorrencia_saida_pista,ano,fator_nome,total_fatores,fator_humano,fator_operacional,fator_material,fator_metereologico,fator_outro,aeronave_operador_categoria,aeronave_tipo_veiculo,aeronave_fabricante,aeronave_modelo,aeronave_tipo_icao,aeronave_motor_tipo,aeronave_motor_quantidade,aeronave_assentos,aeronave_ano_fabricacao,aeronave_pais_fabricante,aeronave_pais_registro,aeronave_registro_segmento,aeronave_voo_origem,aeronave_voo_destino,aeronave_fase_operacao,aeronave_tipo_operacao,aeronave_nivel_dano,aeronave_fatalidades_total
0,0,39115,39115,39115,39115,39115,ACIDENTE,-13.3805555556,-44.6172222222,CORRENTINA,BA,BRASIL,SNTY,07/02/2010,17:40:00,SIM,FINALIZADA,A-031/CENIPA/2011,SIM,2011-07-21,2,1,NÃO,2010,"APLICAÇÃO DE COMANDOS,JULGAMENTO DE PILOTAGEM,PERCEPÇÃO,PLANEJAMENTO DE VOO,POUCA EXPERIÊNCIA DO PILOTO,PROCESSO DECISÓRIO",6,2,4,0,0,0,PARTICULAR,AVIÃO,NEIVA INDUSTRIA AERONAUTICA,EMB-711A,P28R,PISTÃO,MONOMOTOR,4.0,1979.0,BRASIL,BRASIL,PARTICULAR,BRIGADEIRO ARARIPE MACEDO,CORRENTINA,DECOLAGEM,PRIVADA,SUBSTANCIAL,0
1,1,39156,39156,39156,39156,39156,INCIDENTE GRAVE,-15.2402777778,-59.3541666667,CASCAVEL,PR,BRASIL,SBCA,10/01/2010,23:15:00,SIM,FINALIZADA,I-004/CENIPA/2011,SIM,2011-06-30,2,1,NÃO,2010,"MANUTENÇÃO DE AERONAVE,PLANEJAMENTO GERENCIAL,SUPERVISÃO GERENCIAL",3,0,3,0,0,0,REGULAR,AVIÃO,AEROSPATIALE AND ALENIA,ATR-72-212A,AT72,TURBOÉLICE,BIMOTOR,73.0,2008.0,BRASIL,BRASIL,REGULAR,AFONSO PENA,ADALBERTO MENDES DA SILVA,ARREMETIDA NO AR,REGULAR,LEVE,0
2,2,39235,39235,39235,39235,39235,ACIDENTE,-18.0583333333,-50.1458333333,ITUMBIARA,GO,BRASIL,****,06/02/2010,17:20:00,SIM,FINALIZADA,A-067/CENIPA/2011,SIM,2011-08-29,3,1,NÃO,2010,"PLANEJAMENTO DE VOO,POUCA EXPERIÊNCIA DO PILOTO",2,0,2,0,0,0,AGRÍCOLA,AVIÃO,CESSNA AIRCRAFT,A188B,C188,PISTÃO,MONOMOTOR,1.0,1976.0,BRASIL,BRASIL,AGRÍCOLA,FORA DE AERODROMO,FORA DE AERODROMO,DECOLAGEM,AGRÍCOLA,DESTRUÍDA,1
3,3,39275,39275,39275,39275,39275,ACIDENTE,-23.5758333333,-46.7022222222,SÃO PAULO,SP,BRASIL,****,10/02/2010,09:03:00,SIM,FINALIZADA,A-009/CENIPA/2014,SIM,2016-04-22,3,1,NÃO,2010,"APLICAÇÃO DE COMANDOS,CULTURA DO GRUPO DE TRABALHO,CULTURA ORGANIZACIONAL,ESTRESSE,FADIGA,FORMAÇÃO, CAPACITAÇÃO E TREINAMENTO,INSTRUÇÃO,MANUTENÇÃO DE AERONAVE,MEDICAMENTO,ORGANIZAÇÃO DO TRABALHO,PESSOAL DE APOIO,PLANEJAMENTO GERENCIAL,SUPERVISÃO GERENCIAL",13,7,6,0,0,0,PARTICULAR,HELICÓPTERO,EUROCOPTER FRANCE,AS 350 BA,***,TURBOEIXO,MONOMOTOR,6.0,1994.0,BRASIL,BRASIL,PARTICULAR,CAMPO DE MARTE,CAMPO DE MARTE,CRUZEIRO,PRIVADA,DESTRUÍDA,1
4,4,39315,39315,39315,39315,39315,ACIDENTE,-6.615,-64.1116666667,CANUTAMA,AM,BRASIL,****,15/01/2010,21:22:00,***,FINALIZADA,A-519/CENIPA/2016,SIM,2017-02-08,0,1,NÃO,2010,"ATITUDE,CONDIÇÕES METEOROLÓGICAS ADVERSAS,CULTURA ORGANIZACIONAL,MOTIVAÇÃO,PESSOAL DE APOIO,PLANEJAMENTO DE VOO,PLANEJAMENTO GERENCIAL,PROCESSO DECISÓRIO,SUPERVISÃO GERENCIAL",9,4,4,0,1,0,TÁXI AÉREO,HELICÓPTERO,HELIBRAS,HB-350B,AS50,TURBOEIXO,MONOMOTOR,6.0,1981.0,BRASIL,BRASIL,TÁXI AÉREO,FORA DE AERODROMO,LÁBREA,CRUZEIRO,TÁXI AÉREO,***,2
5,5,39316,39316,39316,39316,39316,ACIDENTE,-27.1919444444,-49.8313888889,RIO DO OESTE,SC,BRASIL,****,04/02/2010,17:55:00,SIM,FINALIZADA,A-011/CENIPA/2011,SIM,2011-05-18,2,1,NÃO,2010,"CONDIÇÕES METEOROLÓGICAS ADVERSAS,INFRAESTRUTURA AEROPORTUÁRIA,INSTRUÇÃO,JULGAMENTO DE PILOTAGEM,PLANEJAMENTO DE VOO,SUPERVISÃO GERENCIAL",6,0,5,0,1,0,INSTRUÇÃO,AVIÃO,AERO BOERO,AB-115,AB11,PISTÃO,MONOMOTOR,2.0,1992.0,BRASIL,BRASIL,INSTRUÇÃO,BLUMENAU,RANCHO SUMIDOR,POUSO,INSTRUÇÃO,SUBSTANCIAL,0
6,6,39318,39318,39318,39318,39318,ACIDENTE,-2.6,-51.8441666667,SENADOR JOSÉ PORFÍRIO,PA,BRASIL,****,25/01/2010,16:20:00,***,FINALIZADA,A-122/CENIPA/2012,SIM,2012-11-19,5,1,NÃO,2010,"ATITUDE,CONDIÇÕES METEOROLÓGICAS ADVERSAS,COORDENAÇÃO DE CABINE,CULTURA DO GRUPO DE TRABALHO,CULTURA ORGANIZACIONAL,JULGAMENTO DE PILOTAGEM,MANUTENÇÃO DE AERONAVE,PROCESSOS ORGANIZACIONAIS,SUPERVISÃO GERENCIAL",9,4,4,0,1,0,TÁXI AÉREO,AVIÃO,EMBRAER,EMB-110,E110,TURBOÉLICE,BIMOTOR,1.0,1976.0,BRASIL,BRASIL,TÁXI AÉREO,VAL DE CANS / JÚLIO CEZAR RIBEIRO,WILMA REBELO,DESCIDA,TÁXI AÉREO,SUBSTANCIAL,2
7,7,39319,39319,39319,39319,39319,ACIDENTE,-23.4125,-47.5583333333,IPERÓ,SP,BRASIL,****,27/01/2010,11:25:00,SIM,FINALIZADA,A-017/CENIPA/2011,SIM,2011-06-30,3,1,NÃO,2010,"ANSIEDADE,ATENÇÃO,ATITUDE,ESQUECIMENTO DO PILOTO,MOTIVAÇÃO,PLANEJAMENTO DE VOO",6,4,2,0,0,0,PARTICULAR,AVIÃO,EMBRAER,EMB-810C,PA34,PISTÃO,BIMOTOR,6.0,1981.0,BRASIL,BRASIL,PARTICULAR,SOROCABA,FAZENDA SANTA RITA,SUBIDA,PRIVADA,DESTRUÍDA,2
8,8,39320,39320,39320,39320,39320,ACIDENTE,-20.2961111111,-52.7244444444,FAROL,PR,BRASIL,****,19/01/2010,18:30:00,***,FINALIZADA,A-095/CENIPA/2010,SIM,2010-12-06,4,1,NÃO,2010,"JULGAMENTO DE PILOTAGEM,PLANEJAMENTO DE VOO,SUPERVISÃO GERENCIAL",3,0,3,0,0,0,AGRÍCOLA,AVIÃO,CESSNA AIRCRAFT,A188B,C188,PISTÃO,MONOMOTOR,1.0,1977.0,BRASIL,BRASIL,AGRÍCOLA,FORA DE AERODROMO,FORA DE AERODROMO,DECOLAGEM,AGRÍCOLA,SUBSTANCIAL,0
9,9,39321,39321,39321,39321,39321,ACIDENTE,-15.2402777778,-59.3541666667,PONTES E LACERDA,MT,BRASIL,****,23/01/2010,13:00:00,***,FINALIZADA,A-010/CENIPA/2011,SIM,2011-05-18,2,1,NÃO,2010,"APLICAÇÃO DE COMANDOS,INDISCIPLINA DE VOO,JULGAMENTO DE PILOTAGEM",3,0,3,0,0,0,PARTICULAR,AVIÃO,CESSNA AIRCRAFT,210N,C210,PISTÃO,MONOMOTOR,6.0,1981.0,BRASIL,BRASIL,PARTICULAR,FORA DE AERODROMO,FORA DE AERODROMO,POUSO,PRIVADA,DESTRUÍDA,1
10,10,39322,39322,39322,39322,39322,ACIDENTE,-23.6988888889,-46.5616666667,SÃO BERNARDO DO CAMPO,SP,BRASIL,****,26/01/2010,13:50:00,SIM,FINALIZADA,A-030/CENIPA/2011,SIM,2011-07-21,2,1,NÃO,2010,"ATITUDE,CULTURA DO GRUPO DE TRABALHO,CULTURA ORGANIZACIONAL,FORMAÇÃO, CAPACITAÇÃO E TREINAMENTO,INSTRUÇÃO,JULGAMENTO DE PILOTAGEM,MOTIVAÇÃO,PERCEPÇÃO,PLANEJAMENTO DE VOO,POUCA EXPERIÊNCIA DO PILOTO,PROCESSOS ORGANIZACIONAIS,SUPERVISÃO GERENCIAL",12,7,5,0,0,0,ESPECIALIZADA,HELICÓPTERO,ROBINSON HELICOPTER,R44,R44,PISTÃO,MONOMOTOR,4.0,1997.0,BRASIL,BRASIL,ESPECIALIZADA,MERCEDES-BENZ DO BRASIL LTDA,FORA DE AERODROMO,DECOLAGEM,ESPECIALIZADA,SUBSTANCIAL,0
11,11,39385,39385,39385,39385,39385,INCIDENTE GRAVE,-15.8691666667,-47.9208333333,BRASÍLIA,DF,BRASIL,SBBR,21/02/2010,17:00:00,SIM,FINALIZADA,IG-052/CENIPA/2011,SIM,2011-08-01,1,1,NÃO,2010,"DESVIO DE NAVEGAÇÃO,ESQUECIMENTO DO PILOTO",2,0,2,0,0,0,PARTICULAR,AVIÃO,NEIVA INDUSTRIA AERONAUTICA,EMB-711C,P28R,PISTÃO,MONOMOTOR,4.0,1976.0,BRASIL,BRASIL,PARTICULAR,NELSON RODRIGUES GUIMARÃES,PRESIDENTE JUSCELINO KUBITSCHEK,POUSO,PRIVADA,SUBSTANCIAL,0
12,12,39405,39405,39405,39405,39405,ACIDENTE,-17.1044444444,54.4922222222,ITIQUIRA,MT,BRASIL,****,07/02/2010,11:30:00,SIM,FINALIZADA,A-032/CENIPA/2011,SIM,2011-07-21,1,1,NÃO,2010,"APLICAÇÃO DE COMANDOS,CONDIÇÕES METEOROLÓGICAS ADVERSAS,JULGAMENTO DE PILOTAGEM",3,0,2,0,1,0,PARTICULAR,AVIÃO,NEIVA INDUSTRIA AERONAUTICA,EMB-202,IPAN,PISTÃO,MONOMOTOR,1.0,2000.0,BRASIL,BRASIL,PARTICULAR,FORA DE AERODROMO,FORA DE AERODROMO,ESPECIALIZADA,AGRÍCOLA,SUBSTANCIAL,0
13,13,39487,39487,39487,39487,39487,INCIDENTE GRAVE,-10.290000,-48.357778,PALMAS,TO,BRASIL,SBPJ,26/01/2010,16:50:00,SIM,FINALIZADA,IG-575/CENIPA/2014,SIM,2014-10-13,0,1,NÃO,2010,ESQUECIMENTO DO PILOTO,1,0,1,0,0,0,PARTICULAR,AVIÃO,BEECH AIRCRAFT,F33A,BE33,PISTÃO,MONOMOTOR,4.0,1994.0,BRASIL,BRASIL,PARTICULAR,SANTA GENOVEVA/GOIÂNIA,BRIGADEIRO LYSIAS RODRIGUES,POUSO,PRIVADA,SUBSTANCIAL,0
14,14,39507,39507,39507,39507,39507,ACIDENTE,-15.5588888889,-54.3047222222,PRIMAVERA DO LESTE,MT,BRASIL,****,11/01/2010,17:00:00,SIM,FINALIZADA,A-016/CENIPA/2011,SIM,2011-06-30,2,1,NÃO,2010,"PESSOAL DE APOIO,SUPERVISÃO GERENCIAL",2,0,2,0,0,0,AGRÍCOLA,AVIÃO,NEIVA INDUSTRIA AERONAUTICA,EMB-202A,IPAN,PISTÃO,MONOMOTOR,1.0,2005.0,BRASIL,BRASIL,AGRÍCOLA,C.T.O. ITAÚ,FORA DE AERODROMO,OUTRA FASE,AGRÍCOLA,SUBSTANCIAL,0
15,15,39527,39527,39527,39527,39527,ACIDENTE,-13.1066666667,-55.9930555556,LUCAS DO RIO VERDE,MT,BRASIL,****,04/01/2010,17:30:00,SIM,FINALIZADA,A-539/CENIPA/2018,NÃO,,0,1,NÃO,2010,"APLICAÇÃO DE COMANDOS,JULGAMENTO DE PILOTAGEM,PLANEJAMENTO DE VOO,PROCESSO DECISÓRIO",4,1,3,0,0,0,PARTICULAR,AVIÃO,NEIVA INDUSTRIA AERONAUTICA,EMB-202,IPAN,PISTÃO,MONOMOTOR,1.0,2004.0,BRASIL,BRASIL,PARTICULAR,FAZENDA IRMÃOS MUNARETTO,FAZENDA IRMÃOS MUNARETTO,VOO A BAIXA ALTURA,AGRÍCOLA,SUBSTANCIAL,0
16,16,39687,39687,39687,39687,39687,INCIDENTE GRAVE,-26.2563888889,-50.9963888889,PORTO UNIÃO,SC,BRASIL,****,28/01/2010,10:30:00,NÃO,FINALIZADA,IG-509/CENIPA/2017,SIM,2018-05-17,1,1,NÃO,2010,"FABRICAÇÃO,MANUTENÇÃO DE AERONAVE",2,0,1,1,0,0,***,AVIÃO,NEIVA INDUSTRIA AERONAUTICA,EMB-202,IPAN,PISTÃO,MONOMOTOR,1.0,2003.0,BRASIL,BRASIL,ESPECIALIZADA,SANTA TEREZINHA,COMANDANTE ANTONIO AMILTON BERALDO,ESPECIALIZADA,ESPECIALIZADA,NENHUM,0
17,17,39707,39707,39707,39707,39707,INCIDENTE GRAVE,-6.5319444444,-64.3805555556,CANUTAMA,AM,BRASIL,****,09/01/2010,12:30:00,SIM,FINALIZADA,IG-028/CENIPA/2011,SIM,2011-07-21,3,1,NÃO,2010,"INDISCIPLINA DE VOO,MANUTENÇÃO DE AERONAVE,PLANEJAMENTO DE VOO",3,0,3,0,0,0,PARTICULAR,AVIÃO,EMBRAER,EMB-810C,PA34,PISTÃO,BIMOTOR,7.0,1979.0,BRASIL,BRASIL,PARTICULAR,EDUARDO GOMES,LÁBREA,CRUZEIRO,PRIVADA,LEVE,0
18,18,39709,39709,39709,39709,39709,INCIDENTE GRAVE,-25.4033333333,-49.2336111111,CURITIBA,PR,BRASIL,SBBI,23/01/2010,16:36:00,***,FINALIZADA,IG-029/CENIPA/2011,SIM,2011-07-21,2,1,SIM,2010,MANUTENÇÃO DE AERONAVE,1,0,1,0,0,0,PARTICULAR,AVIÃO,PIPER AIRCRAFT,PA-31T1,PAY1,TURBOÉLICE,BIMOTOR,7.0,1980.0,BRASIL,BRASIL,PARTICULAR,MINISTRO VICTOR KONDER,BACACHERI,CORRIDA APÓS POUSO,PRIVADA,NENHUM,0
19,19,39887,39887,39887,39887,39887,ACIDENTE,-19.9091666667,-43.9891666667,BELO HORIZONTE,MG,BRASIL,SBPR,09/03/2010,17:45:00,SIM,FINALIZADA,A-557/CENIPA/2015,SIM,2016-04-07,1,1,SIM,2010,"JULGAMENTO DE PILOTAGEM,PROCESSO DECISÓRIO,SUPERVISÃO GERENCIAL",3,1,2,0,0,0,INSTRUÇÃO,AVIÃO,NEIVA INDUSTRIA AERONAUTICA,EMB-712,P28A,PISTÃO,MONOMOTOR,4.0,1982.0,BRASIL,BRASIL,INSTRUÇÃO,CARLOS PRATES,CARLOS PRATES,SUBIDA,INSTRUÇÃO,SUBSTANCIAL,0
20,20,39913,39913,39913,39913,39913,INCIDENTE GRAVE,-9.8691666667,-67.8938888889,CRUZEIRO DO SUL,AC,BRASIL,SBCZ,10/03/2010,06:17:00,SIM,FINALIZADA,IG-131/CENIPA/2011,SIM,2011-12-21,3,1,SIM,2010,"COORDENAÇÃO DE CABINE,INSTRUÇÃO,JULGAMENTO DE PILOTAGEM",3,0,3,0,0,0,TÁXI AÉREO,AVIÃO,CESSNA AIRCRAFT,208B,C208,TURBOÉLICE,MONOMOTOR,11.0,1993.0,BRASIL,BRASIL,TÁXI AÉREO,PLÁCIDO DE CASTRO,CRUZEIRO DO SUL,DECOLAGEM,TÁXI AÉREO,NENHUM,0
21,21,39916,39916,39916,39916,39916,INCIDENTE GRAVE,-3.0505555556,-60.0508333333,MANAUS,AM,BRASIL,SBEG,07/03/2010,19:35:00,SIM,FINALIZADA,IG-171/CENIPA/2013,SIM,2013-12-30,2,1,SIM,2010,"COORDENAÇÃO DE CABINE,ESQUECIMENTO DO PILOTO,JULGAMENTO DE PILOTAGEM,MANUTENÇÃO DE AERONAVE",4,0,4,0,0,0,TÁXI AÉREO,AVIÃO,LEARJET,35A,LJ35,JATO,BIMOTOR,10.0,1981.0,BRASIL,BRASIL,TÁXI AÉREO,EDUARDO GOMES,FORA DE AERODROMO,DECOLAGEM,TÁXI AÉREO,LEVE,0
22,22,39930,39930,39930,39930,39930,INCIDENTE GRAVE,-25.5311111111,-49.1755555556,CURITIBA,PR,BRASIL,SBCT,16/02/2010,16:25:00,SIM,FINALIZADA,IG-170/CENIPA/2013,SIM,2013-12-12,2,1,NÃO,2010,"DIETA INADEQUADA,FADIGA,INSÔNIA,MEDICAMENTO",4,4,0,0,0,0,TÁXI AÉREO,AVIÃO,CESSNA AIRCRAFT,550,C550,JATO,BIMOTOR,7.0,1991.0,BRASIL,BRASIL,TÁXI AÉREO,AEROPUERTO INTERNACIONAL MINISTRO PISTARINI,AFONSO PENA,CRUZEIRO,TÁXI AÉREO,NENHUM,0
23,23,39933,39933,39933,39933,39933,ACIDENTE,-19.9602777778,-43.9094444444,BELO HORIZONTE,MG,BRASIL,****,26/02/2010,11:19:00,SIM,FINALIZADA,A-032/CENIPA/2013,SIM,2013-12-30,1,1,NÃO,2010,"ATITUDE,CONDIÇÕES METEOROLÓGICAS ADVERSAS,INDISCIPLINA DE VOO,JULGAMENTO DE PILOTAGEM",4,1,2,0,1,0,PARTICULAR,AVIÃO,CESSNA AIRCRAFT,310R,C310,PISTÃO,BIMOTOR,6.0,1976.0,BRASIL,BRASIL,PARTICULAR,DOUTOR RAMALHO FRANCO,CARLOS DRUMMOND DE ANDRADE / PAMPULHA,DESCIDA,PRIVADA,DESTRUÍDA,2
24,24,39969,39969,39969,39969,39969,INCIDENTE,***,***,SALVADOR,BA,BRASIL,SBSV,09/02/2010,23:50:00,SIM,FINALIZADA,I-033/CENIPA/2011,SIM,2011-07-21,4,1,NÃO,2010,FABRICAÇÃO,1,0,0,1,0,0,REGULAR,AVIÃO,BOEING COMPANY,737-7EH,B737,JATO,BIMOTOR,154.0,2009.0,BRASIL,BRASIL,REGULAR,DEPUTADO LUÍS EDUARDO MAGALHÃES,ANTONIO CARLOS JOBIM / GALEÃO,SUBIDA,REGULAR,NENHUM,0
25,25,39992,39992,39992,39992,39992,ACIDENTE,-20.5069444444,-46.6341666667,SÃO PAULO,SP,BRASIL,SBMT,17/02/2010,20:07:00,SIM,FINALIZADA,A-032/CENIPA/2012,SIM,2012-03-22,11,1,SIM,2010,"CONDIÇÕES METEOROLÓGICAS ADVERSAS,INFRAESTRUTURA AEROPORTUÁRIA,INSTRUÇÃO,JULGAMENTO DE PILOTAGEM",4,0,3,0,1,0,PARTICULAR,AVIÃO,EMBRAER,EMB-500,E50P,JATO,BIMOTOR,6.0,2009.0,BRASIL,BRASIL,PARTICULAR,PRESIDENTE JUSCELINO KUBITSCHEK,CAMPO DE MARTE,CORRIDA APÓS POUSO,PRIVADA,LEVE,0
26,26,39993,39993,39993,39993,39993,INCIDENTE GRAVE,-23.33028,-51.13667,LONDRINA,PR,BRASIL,SBLO,11/03/2010,12:30:00,SIM,FINALIZADA,I-053/CENIPA/2011,SIM,2011-08-01,2,1,NÃO,2010,"CONDIÇÕES METEOROLÓGICAS ADVERSAS,MANUTENÇÃO DE AERONAVE,SUPERVISÃO GERENCIAL",3,0,2,0,1,0,***,AVIÃO,CESSNA AIRCRAFT,150J,C150,PISTÃO,MONOMOTOR,2.0,1969.0,BRASIL,BRASIL,INSTRUÇÃO,GOVERNADOR JOSÉ RICHA,FORA DE AERODROMO,DECOLAGEM,INSTRUÇÃO,LEVE,0
27,27,40069,40069,40069,40069,40069,ACIDENTE,-23.5069444444,-46.6341666667,SÃO PAULO,SP,BRASIL,SBMT,10/01/2010,14:50:00,SIM,FINALIZADA,A-121/CENIPA/2012,SIM,2012-11-19,8,1,NÃO,2010,"APLICAÇÃO DE COMANDOS,CULTURA ORGANIZACIONAL,ESQUECIMENTO DO PILOTO,FORMAÇÃO, CAPACITAÇÃO E TREINAMENTO,INSTRUÇÃO,MEMÓRIA,MOTIVAÇÃO,ORGANIZAÇÃO DO TRABALHO,PLANEJAMENTO GERENCIAL,POUCA EXPERIÊNCIA DO PILOTO,PROCESSO DECISÓRIO,PROCESSOS ORGANIZACIONAIS,SISTEMAS DE APOIO,SUPERVISÃO GERENCIAL",14,8,6,0,0,0,PARTICULAR,HELICÓPTERO,HELIBRAS,AS 350 B3,AS50,TURBOEIXO,MONOMOTOR,7.0,1999.0,BRASIL,BRASIL,PARTICULAR,FORA DE AERODROMO,UNICID - UNIVERSIDADE CIDADE DE SÃO PAULO,PARTIDA DO MOTOR,PRIVADA,DESTRUÍDA,0
28,28,40087,40087,40087,40087,40087,ACIDENTE,-16.3625,-48.9280555556,ANÁPOLIS,GO,BRASIL,SWNS,26/03/2010,10:45:00,SIM,FINALIZADA,A-082/CENIPA/2011,SIM,2011-09-23,4,1,NÃO,2010,"INDISCIPLINA DE VOO,INSTRUÇÃO,JULGAMENTO DE PILOTAGEM",3,0,3,0,0,0,PARTICULAR,AVIÃO,CESSNA AIRCRAFT,210H,C210,PISTÃO,MONOMOTOR,4.0,1969.0,BRASIL,BRASIL,PARTICULAR,ANÁPOLIS,FAZENDA SÃO LUIZ,DECOLAGEM,PRIVADA,SUBSTANCIAL,0
29,29,40088,40088,40088,40088,40088,ACIDENTE,-4.5880555556,-60.1722222222,UIRAMUTÃ,RR,BRASIL,****,19/03/2010,13:10:00,SIM,FINALIZADA,A-034/CENIPA/2011,SIM,2011-07-21,3,1,SIM,2010,"CONDIÇÕES METEOROLÓGICAS ADVERSAS,JULGAMENTO DE PILOTAGEM,PLANEJAMENTO DE VOO,SUPERVISÃO GERENCIAL",4,0,3,0,1,0,ADMINISTRAÇÃO DIRETA,AVIÃO,BEECH AIRCRAFT,E55,BE55,PISTÃO,BIMOTOR,6.0,1974.0,BRASIL,BRASIL,ADMINISTRAÇÃO DIRETA,ATLAS BRASIL CANTANHEDE,SERRA DO SOL,POUSO,NÃO REGULAR,SUBSTANCIAL,0
30,30,40107,40107,40107,40107,40107,ACIDENTE,-1.4169444444,-51.6338888889,GURUPÁ,PA,BRASIL,SNGU,12/01/2010,14:30:00,SIM,FINALIZADA,A-505/CENIPA/2016,SIM,2016-03-18,0,1,NÃO,2010,"APLICAÇÃO DE COMANDOS,INDISCIPLINA DE VOO,SUPERVISÃO GERENCIAL",3,0,3,0,0,0,TÁXI AÉREO,AVIÃO,NEIVA INDUSTRIA AERONAUTICA,EMB-720C,PA32,PISTÃO,MONOMOTOR,7.0,1977.0,BRASIL,BRASIL,TÁXI AÉREO,BREVES,GURUPÁ,POUSO,TÁXI AÉREO,LEVE,0
31,31,40147,40147,40147,40147,40147,ACIDENTE,-26.2316666667,-51.0688888889,UNIÃO DA VITÓRIA,PR,BRASIL,SSUV,08/04/2010,14:20:00,SIM,FINALIZADA,A-016/CENIPA/2012,SIM,2012-02-22,3,1,SIM,2010,"APLICAÇÃO DE COMANDOS,CONDIÇÕES METEOROLÓGICAS ADVERSAS,INFRAESTRUTURA AEROPORTUÁRIA,MANUTENÇÃO DE AERONAVE,SUPERVISÃO GERENCIAL",5,0,4,0,1,0,PARTICULAR,AVIÃO,PIPER AIRCRAFT,PA-34-220T,PA34,PISTÃO,BIMOTOR,6.0,1997.0,BRASIL,BRASIL,PARTICULAR,BACACHERI,JOSÉ CLETO,POUSO,PRIVADA,SUBSTANCIAL,0
32,32,40148,40148,40148,40148,40148,ACIDENTE,-20.5125,-54.5363888889,CAMPO GRANDE,MS,BRASIL,****,19/03/2010,19:30:00,SIM,FINALIZADA,A-054/CENIPA/2011,SIM,2011-08-01,1,1,NÃO,2010,"APLICAÇÃO DE COMANDOS,JULGAMENTO DE PILOTAGEM,MANUTENÇÃO DE AERONAVE,PLANEJAMENTO DE VOO,POUCA EXPERIÊNCIA DO PILOTO",5,0,5,0,0,0,PARTICULAR,AVIÃO,CESSNA AIRCRAFT,185,C185,PISTÃO,MONOMOTOR,6.0,1962.0,BRASIL,BRASIL,PARTICULAR,FORA DE AERODROMO,ESTÂNCIA SANTA MARIA,APROXIMAÇÃO FINAL,PRIVADA,SUBSTANCIAL,0
33,33,40149,40149,40149,40149,40149,ACIDENTE,-16.26222,-47.97000,LUZIÂNIA,GO,BRASIL,SWUZ,21/03/2010,20:45:00,SIM,FINALIZADA,A-068/CENIPA/2011,SIM,2011-08-29,2,1,NÃO,2010,"INDISCIPLINA DE VOO,JULGAMENTO DE PILOTAGEM",2,0,2,0,0,0,INSTRUÇÃO,AVIÃO,XAVANTE,A-122-B,A122,PISTÃO,MONOMOTOR,2.0,1974.0,BRASIL,BRASIL,INSTRUÇÃO,BRIGADEIRO ARARIPE MACEDO,FORA DE AERODROMO,DECOLAGEM,INSTRUÇÃO,DESTRUÍDA,0
34,34,40150,40150,40150,40150,40150,INCIDENTE GRAVE,-29.71083,-53.69222,SANTA MARIA,RS,BRASIL,SBSM,10/03/2010,17:20:00,SIM,FINALIZADA,IG-524/CENIPA/2017,SIM,2017-11-30,0,1,NÃO,2010,"MANUTENÇÃO DE AERONAVE,SUPERVISÃO GERENCIAL",2,0,2,0,0,0,***,AVIÃO,BEECH AIRCRAFT,A36,BE36,PISTÃO,MONOMOTOR,6.0,1974.0,BRASIL,BRASIL,ADMINISTRAÇÃO DIRETA,SALGADO FILHO,ITAQUI,POUSO,POLICIAL,LEVE,0
35,35,40171,40171,40171,40171,40171,ACIDENTE,-10.7275,-48.3336111111,PORTO NACIONAL,TO,BRASIL,SBPN,07/04/2010,18:45:00,SIM,FINALIZADA,A-012/CENIPA/2011,SIM,2011-05-18,2,1,NÃO,2010,"MANUTENÇÃO DE AERONAVE,SUPERVISÃO GERENCIAL",2,0,2,0,0,0,INSTRUÇÃO,AVIÃO,AERO BOERO,AB-115,AB11,PISTÃO,MONOMOTOR,2.0,1991.0,BRASIL,BRASIL,INSTRUÇÃO,PORTO NACIONAL,FORA DE AERODROMO,DECOLAGEM,INSTRUÇÃO,SUBSTANCIAL,0
36,36,40214,40214,40214,40214,40214,ACIDENTE,-7.9591666667,-53.2669444444,REDENÇÃO,PA,BRASIL,****,12/04/2010,19:30:00,SIM,FINALIZADA,A-069/CENIPA/2011,SIM,2011-08-29,1,1,NÃO,2010,"COORDENAÇÃO DE CABINE,INDISCIPLINA DE VOO,INFLUÊNCIA DO MEIO AMBIENTE,JULGAMENTO DE PILOTAGEM,MANUTENÇÃO DE AERONAVE,PLANEJAMENTO DE VOO,PLANEJAMENTO GERENCIAL,SUPERVISÃO GERENCIAL",8,1,7,0,0,0,ADMINISTRAÇÃO INDIRETA,AVIÃO,BEECH AIRCRAFT,58,BE58,PISTÃO,BIMOTOR,6.0,1974.0,BRASIL,BRASIL,ADMINISTRAÇÃO INDIRETA,OURILÂNDIA DO NORTE,FORA DE AERODROMO,POUSO,PRIVADA,SUBSTANCIAL,0
37,37,40264,40264,40264,40264,40264,ACIDENTE,-15.3105555556,-54.8991666667,CAMPO VERDE,MT,BRASIL,SWOZ,20/04/2010,16:30:00,SIM,FINALIZADA,A-033/CENIPA/2012,SIM,2012-03-22,2,1,NÃO,2010,"ATITUDE,CULTURA DO GRUPO DE TRABALHO,CULTURA ORGANIZACIONAL,INFLUÊNCIA DO MEIO AMBIENTE,PERCEPÇÃO,PLANEJAMENTO DE VOO,SUPERVISÃO GERENCIAL",7,5,2,0,0,0,TÁXI AÉREO,AVIÃO,EMBRAER,EMB-810C,PA34,PISTÃO,BIMOTOR,6.0,1978.0,BRASIL,BRASIL,TÁXI AÉREO,ESTÂNCIA SANTA RITA,FAZENDA SANTO ANTÔNIO,POUSO,TÁXI AÉREO,SUBSTANCIAL,0
38,38,40267,40267,40267,40267,40267,INCIDENTE GRAVE,-13.0213888889,-38.6811111111,VERA CRUZ,BA,BRASIL,SNVR,04/04/2010,11:00:00,SIM,FINALIZADA,IG-580/CENIPA/2016,SIM,2018-12-04,2,1,NÃO,2010,"MANUTENÇÃO DE AERONAVE,PROCESSOS ORGANIZACIONAIS,SUPERVISÃO GERENCIAL",3,1,2,0,0,0,***,AVIÃO,PIPER AIRCRAFT,PA-31,PA31,PISTÃO,BIMOTOR,8.0,1973.0,BRASIL,BRASIL,TÁXI AÉREO,DEPUTADO LUÍS EDUARDO MAGALHÃES,LORENZO,CRUZEIRO,TÁXI AÉREO,NENHUM,0
39,39,40269,40269,40269,40269,40269,INCIDENTE GRAVE,-16.36250,-48.91139,ANÁPOLIS,GO,BRASIL,SWNS,07/04/2010,19:30:00,SIM,FINALIZADA,IG-533/CENIPA/2018,NÃO,,1,1,SIM,2010,"MANUTENÇÃO DE AERONAVE,PROCESSOS ORGANIZACIONAIS,SUPERVISÃO GERENCIAL",3,1,2,0,0,0,PARTICULAR,AVIÃO,CESSNA AIRCRAFT,310R,C310,PISTÃO,BIMOTOR,6.0,1979.0,BRASIL,BRASIL,PARTICULAR,PRESIDENTE JUSCELINO KUBITSCHEK,ANÁPOLIS,POUSO,PRIVADA,LEVE,0
40,40,40270,40270,40270,40270,40270,INCIDENTE GRAVE,,,PIRASSUNUNGA,SP,BRASIL,SDPY,15/04/2010,20:15:00,,ATIVA,A DEFINIR,NÃO,,0,1,NÃO,2010,"COORDENAÇÃO DE CABINE,JULGAMENTO DE PILOTAGEM,PESSOAL DE APOIO,SUPERVISÃO GERENCIAL",4,0,4,0,0,0,INSTRUÇÃO,AVIÃO,CESSNA AIRCRAFT,152,C152,PISTÃO,MONOMOTOR,2.0,1985.0,BRASIL,BRASIL,INSTRUÇÃO,FORA DE AERODROMO,FORA DE AERODROMO,PARTIDA DO MOTOR,INSTRUÇÃO,SUBSTANCIAL,0
41,41,40271,40271,40271,40271,40271,ACIDENTE,-8.0958333333,-34.8916666667,RECIFE,PE,BRASIL,SNEM,21/04/2010,11:27:00,SIM,FINALIZADA,A-018/CENIPA/2011,SIM,2011-06-30,2,1,NÃO,2010,"APLICAÇÃO DE COMANDOS,ATITUDE,JULGAMENTO DE PILOTAGEM,MOTIVAÇÃO,PLANEJAMENTO DE VOO,PROCESSO DECISÓRIO,PROCESSOS ORGANIZACIONAIS,RELAÇÕES INTERPESSOAIS,SUPERVISÃO GERENCIAL",9,5,4,0,0,0,INSTRUÇÃO,AVIÃO,CIA AERONAUTICA PAULISTA,CAP-4,PAUL,PISTÃO,MONOMOTOR,2.0,1946.0,BRASIL,BRASIL,INSTRUÇÃO,ENCANTA MOÇA,FAZENDA BUSATO 1,DECOLAGEM,INSTRUÇÃO,LEVE,0
42,42,40316,40316,40316,40316,40316,INCIDENTE GRAVE,-19.76083,-42.63873,TIMÓTEO,MG,BRASIL,****,26/02/2010,14:40:00,SIM,FINALIZADA,IG-053/CENIPA/2013,SIM,2013-11-12,3,1,NÃO,2010,"MANUTENÇÃO DE AERONAVE,SUPERVISÃO GERENCIAL",2,0,2,0,0,0,ADMINISTRAÇÃO DIRETA,HELICÓPTERO,HELIBRAS,AS 350 B2,AS50,TURBOEIXO,MONOMOTOR,6.0,2006.0,BRASIL,BRASIL,ADMINISTRAÇÃO DIRETA,FORA DE AERODROMO,FORA DE AERODROMO,DESCIDA,POLICIAL,SUBSTANCIAL,0
43,43,40328,40328,40328,40328,40328,ACIDENTE,-13.40194,-46.08806,CORRENTINA,BA,BRASIL,****,15/04/2010,17:25:00,SIM,FINALIZADA,A-581/CENIPA/2016,SIM,2019-08-06,0,1,NÃO,2010,"INFRAESTRUTURA AEROPORTUÁRIA,JULGAMENTO DE PILOTAGEM,PLANEJAMENTO DE VOO,PROCESSOS ORGANIZACIONAIS,SUPERVISÃO GERENCIAL",5,1,4,0,0,0,***,AVIÃO,NEIVA INDUSTRIA AERONAUTICA,EMB-201A,IPAN,PISTÃO,MONOMOTOR,1.0,1978.0,BRASIL,BRASIL,AGRÍCOLA,FORA DE AERODROMO,FORA DE AERODROMO,CORRIDA APÓS POUSO,AGRÍCOLA,SUBSTANCIAL,0
44,44,40350,40350,40350,40350,40350,INCIDENTE GRAVE,-3.442222,-60.35139,UIRAMUTÃ,RR,BRASIL,****,17/04/2010,20:30:00,SIM,FINALIZADA,I-035/CENIPA/2011,SIM,2016-04-29,0,1,NÃO,2010,"JULGAMENTO DE PILOTAGEM,OUTRO FATOR,SUPERVISÃO GERENCIAL",3,0,2,0,0,1,ADMINISTRAÇÃO INDIRETA,AVIÃO,BRITTEN-NORMAN,BN-2A-9,BN2P,PISTÃO,BIMOTOR,10.0,1971.0,BRASIL,BRASIL,ADMINISTRAÇÃO INDIRETA,ATLAS BRASIL CANTANHEDE,FORA DE AERODROMO,SUBIDA,PRIVADA,LEVE,0
45,45,40554,40554,40554,40554,40554,ACIDENTE,-22.4761111111,-44.4711111111,RESENDE,RJ,BRASIL,****,27/04/2010,18:47:00,SIM,FINALIZADA,A-114/CENIPA/2012,SIM,2012-10-17,8,1,NÃO,2010,"APLICAÇÃO DE COMANDOS,ATITUDE,CULTURA DO GRUPO DE TRABALHO,CULTURA ORGANIZACIONAL,ESTADO EMOCIONAL,FORMAÇÃO, CAPACITAÇÃO E TREINAMENTO,INDISCIPLINA DE VOO,INSTRUÇÃO,JULGAMENTO DE PILOTAGEM,MOTIVAÇÃO,PLANEJAMENTO DE VOO,SISTEMAS DE APOIO,SUPERVISÃO GERENCIAL",13,7,6,0,0,0,ADMINISTRAÇÃO DIRETA,AVIÃO,AIR TRACTOR,AT-802,AT8T,TURBOÉLICE,MONOMOTOR,2.0,2003.0,BRASIL,BRASIL,ADMINISTRAÇÃO DIRETA,RESENDE,FORA DE AERODROMO,MANOBRA,POLICIAL,DESTRUÍDA,2
46,46,40572,40572,40572,40572,40572,ACIDENTE,-29.9938888889,-51.1711111111,PORTO ALEGRE,RS,BRASIL,SBPA,28/04/2010,14:10:00,SIM,FINALIZADA,A-528/CENIPA/2015,SIM,2015-06-06,0,1,NÃO,2010,"COMUNICAÇÃO,PERCEPÇÃO,POUCA EXPERIÊNCIA DO PILOTO,PROCESSOS ORGANIZACIONAIS",4,3,1,0,0,0,INSTRUÇÃO,AVIÃO,CESSNA AIRCRAFT,152,C152,PISTÃO,MONOMOTOR,2.0,1982.0,BRASIL,BRASIL,INSTRUÇÃO,SALGADO FILHO,SALGADO FILHO,DECOLAGEM,INSTRUÇÃO,SUBSTANCIAL,0
47,47,40573,40573,40573,40573,40573,INCIDENTE GRAVE,-52.3822222222,-40.1294444444,ITAPETINGA,BA,BRASIL,****,01/05/2010,15:40:00,SIM,FINALIZADA,IG-070/CENIPA/2011,SIM,2011-08-29,2,1,NÃO,2010,"MANUTENÇÃO DE AERONAVE,SUPERVISÃO GERENCIAL",2,0,2,0,0,0,PARTICULAR,AVIÃO,CESSNA AIRCRAFT,172F,C172,PISTÃO,MONOMOTOR,4.0,1965.0,BRASIL,BRASIL,PARTICULAR,CIRILO QUEIRÓZ,BAHIA - JORGE AMADO,CRUZEIRO,PRIVADA,LEVE,0
48,48,40583,40583,40583,40583,40583,INCIDENTE,-12.90861,-38.32250,SALVADOR,BA,BRASIL,SBSV,30/04/2010,16:35:00,SIM,FINALIZADA,I-019/CENIPA/2011,SIM,2011-06-30,1,1,NÃO,2010,MANUTENÇÃO DE AERONAVE,1,0,1,0,0,0,ADMINISTRAÇÃO DIRETA,AVIÃO,BEECH AIRCRAFT,C90A,BE9L,TURBOÉLICE,BIMOTOR,8.0,1996.0,BRASIL,BRASIL,ADMINISTRAÇÃO DIRETA,DEPUTADO LUÍS EDUARDO MAGALHÃES,PORTO SEGURO,DECOLAGEM,POLICIAL,LEVE,0
49,49,40621,40621,40621,40621,40621,INCIDENTE GRAVE,-21.83778,-46.56611,POÇOS DE CALDAS,MG,BRASIL,SBPC,05/05/2010,21:05:00,SIM,FINALIZADA,IG-546/CENIPA/2017,SIM,2018-05-10,0,1,NÃO,2010,"INFRAESTRUTURA AEROPORTUÁRIA,MANUTENÇÃO DE AERONAVE",2,0,2,0,0,0,***,AVIÃO,NEIVA INDUSTRIA AERONAUTICA,EMB-711ST,P28T,PISTÃO,MONOMOTOR,4.0,1980.0,BRASIL,BRASIL,PARTICULAR,MORADA NOVA DE MINAS,EMBAIXADOR WALTHER MOREIRA SALLES,POUSO,PRIVADA,LEVE,0
50,50,40732,40732,40732,40732,40732,INCIDENTE GRAVE,-12.7425,-38.1516666667,CAMAÇARI,BA,BRASIL,****,08/05/2010,15:05:00,SIM,FINALIZADA,IG-582/CENIPA/2016,SIM,2016-12-01,5,1,NÃO,2010,"ATITUDE,COORDENAÇÃO DE CABINE,CULTURA DO GRUPO DE TRABALHO,CULTURA ORGANIZACIONAL,DINÂMICA DE EQUIPE,ESQUECIMENTO DO PILOTO,MANUTENÇÃO DE AERONAVE,PERCEPÇÃO,PROCESSOS ORGANIZACIONAIS,SUPERVISÃO GERENCIAL",10,6,4,0,0,0,***,AVIÃO,CESSNA AIRCRAFT,150E,C150,PISTÃO,MONOMOTOR,2.0,1965.0,BRASIL,BRASIL,INSTRUÇÃO,DEPUTADO LUÍS EDUARDO MAGALHÃES,DEPUTADO LUÍS EDUARDO MAGALHÃES,MANOBRA,INSTRUÇÃO,NENHUM,0
51,51,40793,40793,40793,40793,40793,ACIDENTE,-10.7275,-48.3336111111,PORTO NACIONAL,TO,BRASIL,SBPN,07/05/2010,16:41:00,SIM,FINALIZADA,A-071/CENIPA/2011,SIM,2011-08-29,3,1,SIM,2010,"CULTURA ORGANIZACIONAL,ESTADO EMOCIONAL,JULGAMENTO DE PILOTAGEM,MANUTENÇÃO DE AERONAVE,PERCEPÇÃO,PROCESSO DECISÓRIO,SUPERVISÃO GERENCIAL",7,4,3,0,0,0,INSTRUÇÃO,AVIÃO,AEROMOT,AMT-600,GURI,PISTÃO,MONOMOTOR,2.0,2008.0,BRASIL,BRASIL,INSTRUÇÃO,PORTO NACIONAL,FORA DE AERODROMO,CORRIDA APÓS POUSO,INSTRUÇÃO,SUBSTANCIAL,0
52,52,40855,40855,40855,40855,40855,ACIDENTE,-3.0808333333,3.0808333333,MANAUS,AM,BRASIL,****,13/05/2010,18:58:00,SIM,FINALIZADA,A-044/CENIPA/2011,SIM,2011-08-01,4,1,NÃO,2010,"ATITUDE,FORMAÇÃO, CAPACITAÇÃO E TREINAMENTO,INDISCIPLINA DE VOO,INSTRUÇÃO,JULGAMENTO DE PILOTAGEM,MANUTENÇÃO DE AERONAVE,OUTRO FATOR,PLANEJAMENTO DE VOO,PROCESSO DECISÓRIO,PROCESSOS ORGANIZACIONAIS",10,4,5,0,0,1,TÁXI AÉREO,AVIÃO,EMBRAER,EMB-810C,PA34,PISTÃO,BIMOTOR,7.0,1979.0,BRASIL,BRASIL,TÁXI AÉREO,FLORES,MAUÉS,SUBIDA,TÁXI AÉREO,DESTRUÍDA,6
53,53,41053,41053,41053,41053,41053,ACIDENTE,-25.0022222222,-53.5019444444,CASCAVEL,PR,BRASIL,SBCA,19/05/2010,08:10:00,SIM,FINALIZADA,A-034/CENIPA/2012,SIM,2012-03-22,2,1,NÃO,2010,"ATITUDE,CONDIÇÕES FÍSICAS DO TRABALHO,COORDENAÇÃO DE CABINE,CULTURA ORGANIZACIONAL,DINÂMICA DE EQUIPE,FADIGA,FORMAÇÃO, CAPACITAÇÃO E TREINAMENTO,ILUSÕES VISUAIS,INDISCIPLINA DE VOO,INFLUÊNCIA DO MEIO AMBIENTE,INSTRUÇÃO,MOTIVAÇÃO,ORGANIZAÇÃO DO TRABALHO,OUTRO FATOR,PLANEJAMENTO DE VOO,POUCA EXPERIÊNCIA DO PILOTO,PROCESSO DECISÓRIO,PROCESSOS ORGANIZACIONAIS,SUPERVISÃO GERENCIAL",19,12,6,0,0,1,TÁXI AÉREO,AVIÃO,EMBRAER,EMB-110P,E110,TURBOÉLICE,BIMOTOR,20.0,1976.0,BRASIL,BRASIL,TÁXI AÉREO,SOROCABA,ADALBERTO MENDES DA SILVA,POUSO,TÁXI AÉREO,DESTRUÍDA,0
54,54,41155,41155,41155,41155,41155,ACIDENTE,-23.3316666667,-46.9436111111,JUNDIAÍ,SP,BRASIL,SBJD,20/05/2010,19:35:00,SIM,FINALIZADA,A-070/CENIPA/2012,SIM,2012-07-03,5,1,SIM,2010,"APLICAÇÃO DE COMANDOS,COORDENAÇÃO DE CABINE,ESQUECIMENTO DO PILOTO,JULGAMENTO DE PILOTAGEM,MANUTENÇÃO DE AERONAVE,OUTRO FATOR",6,0,5,0,0,1,PARTICULAR,AVIÃO,PIPER AIRCRAFT,PA-42,***,PISTÃO,BIMOTOR,0.0,0.0,ESTADOS UNIDOS,ESTADOS UNIDOS,PARTICULAR,MUNICIPAL JOÃO WINCKLER,AEROPORTO ESTADUAL DE JUNDIAÍ,CORRIDA APÓS POUSO,***,SUBSTANCIAL,0
55,55,41179,41179,41179,41179,41179,INCIDENTE GRAVE,-15.8691666667,-47.9208333333,BRASÍLIA,DF,BRASIL,SBBR,20/05/2010,22:20:00,SIM,FINALIZADA,IG-010/CENIPA/2013,SIM,2013-09-22,8,1,NÃO,2010,"MANUTENÇÃO DE AERONAVE,SUPERVISÃO GERENCIAL",2,0,2,0,0,0,REGULAR,AVIÃO,FOKKER,F28MK0100,F100,JATO,BIMOTOR,107.0,1991.0,BRASIL,BRASIL,REGULAR,PRESIDENTE JUSCELINO KUBITSCHEK,TANCREDO NEVES,CORRIDA APÓS POUSO,REGULAR,SUBSTANCIAL,0
56,56,41236,41236,41236,41236,41236,ACIDENTE,-10.2680555556,-36.3066666667,FELIZ DESERTO,AL,BRASIL,SNUZ,29/05/2010,09:55:00,SIM,FINALIZADA,A-062/CENIPA/2013,SIM,2013-12-30,3,1,NÃO,2010,"ATENÇÃO,ATITUDE,CARACTERÍSTICAS DA TAREFA,MEDICAMENTO,PERCEPÇÃO,SUPERVISÃO GERENCIAL",6,5,1,0,0,0,AGRÍCOLA,AVIÃO,NEIVA INDUSTRIA AERONAUTICA,EMB-201A,IPAN,PISTÃO,MONOMOTOR,1.0,1982.0,BRASIL,BRASIL,AGRÍCOLA,USINA CORURIPE,FORA DE AERODROMO,OUTRA FASE,AGRÍCOLA,DESTRUÍDA,1
57,57,41374,41374,41374,41374,41374,ACIDENTE,-13.3763888889,-46.135,CORRENTINA,BA,BRASIL,****,26/05/2010,14:00:00,SIM,FINALIZADA,A-072/CENIPA/2011,SIM,2011-08-29,9,1,NÃO,2010,"APLICAÇÃO DE COMANDOS,JULGAMENTO DE PILOTAGEM,MANUTENÇÃO DE AERONAVE,OUTRO FATOR,PLANEJAMENTO DE VOO,PROCESSO DECISÓRIO,RELAÇÕES INTERPESSOAIS",7,2,4,0,0,1,AGRÍCOLA,AVIÃO,NEIVA INDUSTRIA AERONAUTICA,EMB-201A,IPAN,PISTÃO,MONOMOTOR,1.0,1980.0,BRASIL,BRASIL,AGRÍCOLA,FORA DE AERODROMO,FORA DE AERODROMO,OUTRA FASE,AGRÍCOLA,DESTRUÍDA,1
58,58,41411,41411,41411,41411,41411,INCIDENTE GRAVE,-23.5069444444,-46.6341666667,SÃO PAULO,SP,BRASIL,SBMT,08/06/2010,19:30:00,SIM,FINALIZADA,IG-020/CENIPA/2011,SIM,2011-06-30,2,1,SIM,2010,"APLICAÇÃO DE COMANDOS,COORDENAÇÃO DE CABINE,INSTRUÇÃO,JULGAMENTO DE PILOTAGEM,POUCA EXPERIÊNCIA DO PILOTO,SUPERVISÃO GERENCIAL",6,0,6,0,0,0,INSTRUÇÃO,AVIÃO,AERO BOERO,AB-115,AB11,PISTÃO,MONOMOTOR,3.0,1993.0,BRASIL,BRASIL,INSTRUÇÃO,CAMPO DE MARTE,FORA DE AERODROMO,DECOLAGEM,INSTRUÇÃO,LEVE,0
59,59,41480,41480,41480,41480,41480,INCIDENTE,-25.53167,-49.17611,SÃO JOSÉ DOS PINHAIS,PR,BRASIL,SBCT,08/06/2010,23:07:00,SIM,FINALIZADA,I-095/CENIPA/2011,SIM,2011-11-04,1,1,NÃO,2010,"APLICAÇÃO DE COMANDOS,INSTRUÇÃO,JULGAMENTO DE PILOTAGEM,POUCA EXPERIÊNCIA DO PILOTO,SUPERVISÃO GERENCIAL",5,0,5,0,0,0,***,AVIÃO,EMBRAER,ERJ 190-200 IGW,E190,JATO,BIMOTOR,125.0,2008.0,BRASIL,BRASIL,REGULAR,SÍLVIO NAME JÚNIOR,AFONSO PENA,POUSO,REGULAR,LEVE,0
60,60,41552,41552,41552,41552,41552,ACIDENTE,-10.1025,-65.2261111111,NOVA MAMORÉ,RO,BRASIL,****,14/06/2010,14:25:00,SIM,FINALIZADA,A-084/CENIPA/2012,SIM,2012-08-29,9,1,NÃO,2010,"APLICAÇÃO DE COMANDOS,COORDENAÇÃO DE CABINE,INSTRUÇÃO,OUTRO FATOR,PLANEJAMENTO GERENCIAL,SUPERVISÃO GERENCIAL",6,0,5,0,0,1,ESPECIALIZADA,HELICÓPTERO,EUROCOPTER FRANCE,AS 350 B2,AS50,TURBOEIXO,MONOMOTOR,6.0,1997.0,BRASIL,BRASIL,ESPECIALIZADA,FORA DE AERODROMO,FORA DE AERODROMO,RETA FINAL,ESPECIALIZADA,NENHUM,1
61,61,41578,41578,41578,41578,41578,INCIDENTE GRAVE,-14.69083,-52.34917,NOVA XAVANTINA,MT,BRASIL,SWXV,15/06/2010,20:45:00,SIM,FINALIZADA,IG-530/CENIPA/2018,SIM,2019-03-11,1,1,NÃO,2010,"APLICAÇÃO DE COMANDOS,ATENÇÃO,ATITUDE,COORDENAÇÃO DE CABINE,ESQUECIMENTO DO PILOTO,JULGAMENTO DE PILOTAGEM",6,2,4,0,0,0,***,AVIÃO,BEECH AIRCRAFT,58,BE58,PISTÃO,BIMOTOR,6.0,1973.0,BRASIL,BRASIL,TÁXI AÉREO,CANARANA,XAVANTINA,POUSO,TÁXI AÉREO,LEVE,0
62,62,41749,41749,41749,41749,41749,ACIDENTE,-8.1263888889,-34.9227777778,RECIFE,PE,BRASIL,SBRF,04/07/2010,20:20:00,SIM,FINALIZADA,A-021/CENIPA/2011,SIM,2011-06-30,1,1,SIM,2010,"ATENÇÃO,ESTADO EMOCIONAL,INSTRUÇÃO,MOTIVAÇÃO,PERCEPÇÃO,PLANEJAMENTO DE VOO,POUCA EXPERIÊNCIA DO PILOTO",7,4,3,0,0,0,PARTICULAR,AVIÃO,NEIVA INDUSTRIA AERONAUTICA,EMB-810D,PA34,PISTÃO,BIMOTOR,6.0,1986.0,BRASIL,BRASIL,PARTICULAR,GUARARAPES - GILBERTO FREYRE,PRESIDENTE JOÃO SUASSUNA,DECOLAGEM,PRIVADA,SUBSTANCIAL,0
63,63,41750,41750,41750,41750,41750,ACIDENTE,-22.9875,-43.37,RIO DE JANEIRO,RJ,BRASIL,SBJR,12/07/2010,19:53:00,SIM,FINALIZADA,A-133/CENIPA/2011,SIM,2011-12-21,3,1,NÃO,2010,"ATENÇÃO,COMUNICAÇÃO,COORDENAÇÃO DE CABINE,ESTRESSE,FADIGA,JULGAMENTO DE PILOTAGEM,PERCEPÇÃO,PLANEJAMENTO GERENCIAL,PROCESSOS ORGANIZACIONAIS,SUPERVISÃO GERENCIAL",10,6,4,0,0,0,INSTRUÇÃO,HELICÓPTERO,ROBINSON HELICOPTER,R22,R22,PISTÃO,MONOMOTOR,2.0,1988.0,BRASIL,BRASIL,INSTRUÇÃO,JACAREPAGUÁ,FORA DE AERODROMO,PAIRADO,INSTRUÇÃO,SUBSTANCIAL,0
64,64,41751,41751,41751,41751,41751,ACIDENTE,-22.8597222222,-46.0375,CAMANDUCAIA,MG,BRASIL,****,10/07/2010,18:20:00,SIM,FINALIZADA,A-132/CENIPA/2011,SIM,2011-12-21,9,1,NÃO,2010,ESQUECIMENTO DO PILOTO,1,0,1,0,0,0,INSTRUÇÃO,AVIÃO,NEIVA INDUSTRIA AERONAUTICA,56-C-1,PAUL,PISTÃO,MONOMOTOR,2.0,1961.0,BRASIL,BRASIL,INSTRUÇÃO,ESTADUAL ARTHUR SIQUEIRA,MONTE VERDE,DECOLAGEM,INSTRUÇÃO,SUBSTANCIAL,0
65,65,41789,41789,41789,41789,41789,ACIDENTE,-2.5236111111,-44.1241666667,PAÇO DO LUMIAR,MA,BRASIL,****,10/07/2010,13:39:00,SIM,FINALIZADA,A-074/CENIPA/2011,SIM,2011-08-29,4,1,NÃO,2010,"JULGAMENTO DE PILOTAGEM,PLANEJAMENTO DE VOO,SUPERVISÃO GERENCIAL",3,0,3,0,0,0,PARTICULAR,AVIÃO,CESSNA AIRCRAFT,182F,C182,PISTÃO,MONOMOTOR,4.0,1963.0,BRASIL,BRASIL,PARTICULAR,MARECHAL CUNHA MACHADO,CORONEL ALEXANDRE RAPOSO,SUBIDA,PRIVADA,SUBSTANCIAL,0
66,66,41829,41829,41829,41829,41829,ACIDENTE,23.3316666667,-46.9436111111,JUNDIAÍ,SP,BRASIL,SBJD,29/06/2010,19:20:00,SIM,FINALIZADA,A-506/CENIPA/2015,SIM,2015-07-21,2,1,SIM,2010,"APLICAÇÃO DE COMANDOS,COORDENAÇÃO DE CABINE,INSTRUÇÃO,JULGAMENTO DE PILOTAGEM,MANUTENÇÃO DE AERONAVE,PLANEJAMENTO DE VOO,SUPERVISÃO GERENCIAL",7,0,7,0,0,0,ADMINISTRAÇÃO DIRETA,AVIÃO,BEECH AIRCRAFT,300,BE30,TURBOÉLICE,BIMOTOR,10.0,1986.0,BRASIL,BRASIL,ADMINISTRAÇÃO DIRETA,AEROPORTO ESTADUAL DE JUNDIAÍ,SOROCABA,DECOLAGEM,NÃO REGULAR,SUBSTANCIAL,0
67,67,41832,41832,41832,41832,41832,INCIDENTE GRAVE,***,***,RONDONÓPOLIS,MT,BRASIL,****,05/07/2010,22:00:00,,ATIVA,A DEFINIR,NÃO,,0,1,NÃO,2010,"APLICAÇÃO DE COMANDOS,JULGAMENTO DE PILOTAGEM",2,0,2,0,0,0,TÁXI AÉREO,AVIÃO,NEIVA INDUSTRIA AERONAUTICA,EMB-810D,PA34,PISTÃO,BIMOTOR,7.0,1984.0,BRASIL,BRASIL,TÁXI AÉREO,FORA DE AERODROMO,FORA DE AERODROMO,TÁXI,TÁXI AÉREO,SUBSTANCIAL,0
68,68,41834,41834,41834,41834,41834,INCIDENTE GRAVE,-25.1877777778,-50.1444444444,PONTA GROSSA,PR,BRASIL,SSZW,10/07/2010,20:35:00,SIM,FINALIZADA,IG-083/CENIPA/2011,SIM,2011-09-23,5,1,NÃO,2010,"MANUTENÇÃO DE AERONAVE,SUPERVISÃO GERENCIAL",2,0,2,0,0,0,INSTRUÇÃO,AVIÃO,AERO BOERO,AB-115,AB11,PISTÃO,MONOMOTOR,2.0,1992.0,BRASIL,BRASIL,INSTRUÇÃO,COMANDANTE ANTONIO AMILTON BERALDO,FORA DE AERODROMO,CIRCUITO DE TRÁFEGO,INSTRUÇÃO,NENHUM,0
69,69,41837,41837,41837,41837,41837,INCIDENTE,-7.97583,-34.83833,OLINDA,PE,BRASIL,****,11/07/2010,11:50:00,SIM,FINALIZADA,I-036/CENIPA/2011,SIM,2011-07-21,8,1,NÃO,2010,"APLICAÇÃO DE COMANDOS,CONDIÇÕES METEOROLÓGICAS ADVERSAS,INFLUÊNCIA DO MEIO AMBIENTE,JULGAMENTO DE PILOTAGEM",4,1,2,0,1,0,ADMINISTRAÇÃO DIRETA,HELICÓPTERO,BELL HELICOPTER,407,B407,TURBOEIXO,MONOMOTOR,7.0,1999.0,BRASIL,BRASIL,ADMINISTRAÇÃO DIRETA,GUARARAPES - GILBERTO FREYRE,FORA DE AERODROMO,DECOLAGEM,POLICIAL,LEVE,0
70,70,41850,41850,41850,41850,41850,INCIDENTE GRAVE,-10.29,-48.3577777778,PALMAS,TO,BRASIL,SBPJ,15/07/2010,17:00:00,SIM,FINALIZADA,I-022/CENIPA/2011,SIM,2011-06-30,1,1,NÃO,2010,ESQUECIMENTO DO PILOTO,1,0,1,0,0,0,PARTICULAR,AVIÃO,PIPER AIRCRAFT,PA-46-350P,PA46,PISTÃO,MONOMOTOR,6.0,2004.0,BRASIL,BRASIL,PARTICULAR,BRIGADEIRO LYSIAS RODRIGUES,FAZENDA ELDORADO,PARTIDA DO MOTOR,PRIVADA,LEVE,0
71,71,41898,41898,41898,41898,41898,INCIDENTE GRAVE,-28.2922222222,-54.1694444444,SANTO ÂNGELO,RS,BRASIL,****,27/06/2010,17:45:00,SIM,FINALIZADA,IG-562/CENIPA/2016,SIM,2017-05-26,2,1,NÃO,2010,"CONDIÇÕES METEOROLÓGICAS ADVERSAS,CULTURA ORGANIZACIONAL,INDISCIPLINA DE VOO,JULGAMENTO DE PILOTAGEM,PLANEJAMENTO GERENCIAL,PROCESSO DECISÓRIO,PROCESSOS ORGANIZACIONAIS,SUPERVISÃO GERENCIAL",8,3,4,0,1,0,INSTRUÇÃO,AVIÃO,CIA AERONAUTICA PAULISTA,CAP-4,PAUL,PISTÃO,MONOMOTOR,2.0,1946.0,BRASIL,BRASIL,INSTRUÇÃO,SANTA ROSA,SANTO ÂNGELO,POUSO,INSTRUÇÃO,NENHUM,0
72,72,41900,41900,41900,41900,41900,ACIDENTE,-21.4513888889,-49.4377777778,NOVO HORIZONTE,SP,BRASIL,****,16/07/2010,19:20:00,SIM,FINALIZADA,A-035/CENIPA/2013,SIM,2013-12-12,3,1,NÃO,2010,"INFLUÊNCIA DO MEIO AMBIENTE,OUTRO FATOR,PROJETO",3,1,0,1,0,1,PARTICULAR,HELICÓPTERO,ROBINSON HELICOPTER,R44 II,R44,PISTÃO,MONOMOTOR,4.0,2004.0,BRASIL,BRASIL,PARTICULAR,FORA DE AERODROMO,LEITE LOPES,CRUZEIRO,PRIVADA,DESTRUÍDA,1
73,73,41916,41916,41916,41916,41916,ACIDENTE,-15.8952777778,-55.4447222222,SANTO ANTÔNIO DO LEVERGER,MT,BRASIL,SWLV,18/07/2010,16:00:00,SIM,FINALIZADA,A-510/CENIPA/2018,SIM,2018-07-27,0,1,NÃO,2010,"ATITUDE,COMUNICAÇÃO,CONDIÇÕES METEOROLÓGICAS ADVERSAS,INDISCIPLINA DE VOO,JULGAMENTO DE PILOTAGEM,PLANEJAMENTO DE VOO,POUCA EXPERIÊNCIA DO PILOTO,PROCESSO DECISÓRIO",8,3,4,0,1,0,***,AVIÃO,NEIVA INDUSTRIA AERONAUTICA,EMB-711C,P28R,PISTÃO,MONOMOTOR,4.0,1975.0,BRASIL,BRASIL,PARTICULAR,AERÓDROMO NACIONAL DE AVIAÇÃO,SANTO ANTÔNIO DE LEVERGER,CRUZEIRO,PRIVADA,DESTRUÍDA,2
74,74,41917,41917,41917,41917,41917,ACIDENTE,-15.8538888889,-47.8063888889,BRASÍLIA,DF,BRASIL,SSGP,19/07/2010,18:30:00,SIM,FINALIZADA,A-037/CENIPA/2011,SIM,2011-07-21,1,1,NÃO,2010,"APLICAÇÃO DE COMANDOS,INFLUÊNCIA DO MEIO AMBIENTE,JULGAMENTO DE PILOTAGEM",3,1,2,0,0,0,PARTICULAR,AVIÃO,CIRRUS DESIGN,SR22,SR22,PISTÃO,MONOMOTOR,4.0,2009.0,BRASIL,BRASIL,PARTICULAR,FORA DE AERODROMO,PIQUET,POUSO,PRIVADA,SUBSTANCIAL,0
75,75,41960,41960,41960,41960,41960,ACIDENTE,-10.19250,-48.17917,PALMAS,TO,BRASIL,****,20/07/2010,15:00:00,SIM,FINALIZADA,A-581/CENIPA/2014,SIM,2014-09-29,1,1,NÃO,2010,"APLICAÇÃO DE COMANDOS,INDISCIPLINA DE VOO,JULGAMENTO DE PILOTAGEM,PLANEJAMENTO DE VOO,PLANEJAMENTO GERENCIAL,POUCA EXPERIÊNCIA DO PILOTO",6,0,6,0,0,0,PARTICULAR,AVIÃO,CESSNA AIRCRAFT,172,C172,PISTÃO,MONOMOTOR,4.0,1958.0,BRASIL,BRASIL,PARTICULAR,BRIGADEIRO LYSIAS RODRIGUES,FORA DE AERODROMO,SUBIDA,PRIVADA,DESTRUÍDA,0
76,76,42001,42001,42001,42001,42001,ACIDENTE,-23.2980555556,-47.6919444444,BOITUVA,SP,BRASIL,SDOI,24/07/2010,18:00:00,SIM,FINALIZADA,A-516/CENIPA/2015,SIM,2015-06-06,1,1,SIM,2010,"APLICAÇÃO DE COMANDOS,CONDIÇÕES METEOROLÓGICAS ADVERSAS,JULGAMENTO DE PILOTAGEM,PLANEJAMENTO DE VOO,SUPERVISÃO GERENCIAL",5,0,4,0,1,0,PARTICULAR,AVIÃO,CESSNA AIRCRAFT,180G,C180,PISTÃO,MONOMOTOR,4.0,1964.0,BRASIL,BRASIL,PARTICULAR,CENTRO NACIONAL DE PÁRA-QUEDISMO,CENTRO NACIONAL DE PÁRA-QUEDISMO,DECOLAGEM,PRIVADA,SUBSTANCIAL,0
77,77,42071,42071,42071,42071,42071,ACIDENTE,-0.3061111111,-50.3941666667,AFUÁ,PA,BRASIL,****,24/07/2010,10:15:00,SIM,FINALIZADA,A-084/CENIPA/2011,SIM,2011-09-23,6,1,NÃO,2010,"MANUTENÇÃO DE AERONAVE,PLANEJAMENTO GERENCIAL,SUPERVISÃO GERENCIAL",3,0,3,0,0,0,TÁXI AÉREO,AVIÃO,CESSNA AIRCRAFT,208B,C208,TURBOÉLICE,MONOMOTOR,2.0,1987.0,BRASIL,BRASIL,TÁXI AÉREO,VAL DE CANS / JÚLIO CEZAR RIBEIRO,ALBERTO ALCOLUMBRE,CRUZEIRO,TÁXI AÉREO,SUBSTANCIAL,0
78,78,42250,42250,42250,42250,42250,ACIDENTE,-22.9102777778,-43.1627777778,RIO DE JANEIRO,RJ,BRASIL,SBRJ,12/08/2010,12:26:00,SIM,FINALIZADA,A-001/CENIPA/2012,SIM,2012-02-22,19,1,SIM,2010,"ATENÇÃO,ATITUDE,COMUNICAÇÃO,COORDENAÇÃO DE CABINE,CULTURA ORGANIZACIONAL,DINÂMICA DE EQUIPE,ESQUECIMENTO DO PILOTO,ESTADO EMOCIONAL,FORMAÇÃO, CAPACITAÇÃO E TREINAMENTO,INSTRUÇÃO,JULGAMENTO DE PILOTAGEM,MANUTENÇÃO DE AERONAVE,MOTIVAÇÃO,ORGANIZAÇÃO DO TRABALHO,PERCEPÇÃO,PLANEJAMENTO GERENCIAL,PROCESSO DECISÓRIO,PROCESSOS ORGANIZACIONAIS,SUPERVISÃO GERENCIAL",19,12,7,0,0,0,TÁXI AÉREO,AVIÃO,LEARJET,55C,LJ55,JATO,BIMOTOR,9.0,1988.0,BRASIL,BRASIL,TÁXI AÉREO,SANTOS DUMONT,ANTONIO CARLOS JOBIM / GALEÃO,SUBIDA,TÁXI AÉREO,SUBSTANCIAL,0
79,79,42251,42251,42251,42251,42251,INCIDENTE GRAVE,-16.43944,-51.77417,PIRANHAS,GO,BRASIL,****,05/08/2010,17:00:00,SIM,FINALIZADA,IG-527/CENIPA/2018,SIM,2019-10-28,0,1,NÃO,2010,"APLICAÇÃO DE COMANDOS,JULGAMENTO DE PILOTAGEM,SUPERVISÃO GERENCIAL",3,0,3,0,0,0,***,AVIÃO,EMBRAER,EMB-810D,PA34,PISTÃO,BIMOTOR,7.0,1982.0,BRASIL,BRASIL,TÁXI AÉREO,FORA DE AERODROMO,FORA DE AERODROMO,DECOLAGEM,TÁXI AÉREO,SUBSTANCIAL,0
80,80,42287,42287,42287,42287,42287,ACIDENTE,-2.5516666667,-54.7,SANTARÉM,PA,BRASIL,****,06/08/2010,20:20:00,SIM,FINALIZADA,A-076/CENIPA/2011,SIM,2011-08-29,2,1,NÃO,2010,"MANUTENÇÃO DE AERONAVE,SUPERVISÃO GERENCIAL",2,0,2,0,0,0,TÁXI AÉREO,AVIÃO,EMBRAER,EMB-810C,PA34,PISTÃO,BIMOTOR,6.0,1982.0,BRASIL,BRASIL,TÁXI AÉREO,PIQUIATUBA,MAESTRO WILSON FONSECA,DECOLAGEM,TÁXI AÉREO,SUBSTANCIAL,0
81,81,42289,42289,42289,42289,42289,INCIDENTE GRAVE,-23.5075,-46.6344444444,SÃO PAULO,SP,BRASIL,SBMT,29/07/2010,20:06:00,SIM,FINALIZADA,IG-510/CENIPA/2015,SIM,2015-06-03,0,1,NÃO,2010,OUTRO FATOR,1,0,0,0,0,1,INSTRUÇÃO,AVIÃO,PIPER AIRCRAFT,PA-34-200,PA34,PISTÃO,BIMOTOR,6.0,1974.0,BRASIL,BRASIL,INSTRUÇÃO,JACAREPAGUÁ,CAMPO DE MARTE,POUSO,INSTRUÇÃO,NENHUM,0
82,82,42386,42386,42386,42386,42386,ACIDENTE,-14.8636111111,-40.8630555556,VITÓRIA DA CONQUISTA,BA,BRASIL,SBQV,25/08/2010,17:40:00,SIM,FINALIZADA,A-512/CENIPA/2016,SIM,2017-05-26,3,1,SIM,2010,"APLICAÇÃO DE COMANDOS,ATENÇÃO,CULTURA DO GRUPO DE TRABALHO,ILUSÕES VISUAIS,PLANEJAMENTO GERENCIAL,SISTEMAS DE APOIO",6,4,2,0,0,0,REGULAR,AVIÃO,EMBRAER,EMB-145LU,E145,JATO,BIMOTOR,54.0,2000.0,BRASIL,BRASIL,REGULAR,GOVERNADOR ANDRÉ FRANCO MONTORO,VITÓRIA DA CONQUISTA,RETA FINAL,REGULAR,SUBSTANCIAL,0
83,83,42387,42387,42387,42387,42387,ACIDENTE,-3.0952777778,-45.0280555556,MATINHA,MA,BRASIL,****,24/07/2010,17:00:00,SIM,FINALIZADA,A-075/CENIPA/2011,SIM,2011-08-29,1,1,SIM,2010,"APLICAÇÃO DE COMANDOS,INDISCIPLINA DE VOO,PLANEJAMENTO DE VOO,PLANEJAMENTO GERENCIAL,SUPERVISÃO GERENCIAL",5,0,5,0,0,0,PARTICULAR,AVIÃO,NEIVA INDUSTRIA AERONAUTICA,EMB-711ST,P28T,PISTÃO,MONOMOTOR,4.0,1981.0,BRASIL,BRASIL,PARTICULAR,FORA DE AERODROMO,MARECHAL CUNHA MACHADO,DECOLAGEM,PRIVADA,SUBSTANCIAL,0
84,84,42388,42388,42388,42388,42388,ACIDENTE,-30.0022222222,-52.9402777778,CACHOEIRA DO SUL,RS,BRASIL,SSKS,24/08/2010,19:40:00,SIM,FINALIZADA,A-038/CENIPA/2011,SIM,2011-07-21,1,1,NÃO,2010,"APLICAÇÃO DE COMANDOS,CONDIÇÕES METEOROLÓGICAS ADVERSAS,JULGAMENTO DE PILOTAGEM",3,0,2,0,1,0,INSTRUÇÃO,AVIÃO,CESSNA AIRCRAFT,170A,C170,PISTÃO,MONOMOTOR,4.0,1952.0,BRASIL,BRASIL,INSTRUÇÃO,CACHOEIRA DO SUL,FORA DE AERODROMO,POUSO,INSTRUÇÃO,SUBSTANCIAL,0
85,85,42427,42427,42427,42427,42427,INCIDENTE GRAVE,-29.99389,-51.17111,PORTO ALEGRE,RS,BRASIL,SBPA,10/08/2010,21:46:00,SIM,FINALIZADA,IG-523/CENIPA/2017,SIM,2018-09-24,1,1,NÃO,2010,OUTRO FATOR,1,0,0,0,0,1,***,AVIÃO,CHINCUL SACAIFI,PA-28R-201,P28R,PISTÃO,MONOMOTOR,4.0,1990.0,BRASIL,BRASIL,INSTRUÇÃO,SALGADO FILHO,FORA DE AERODROMO,DESCIDA,INSTRUÇÃO,NENHUM,0
86,86,42449,42449,42449,42449,42449,ACIDENTE,-6.5666666667,-53.3958333333,SÃO FÉLIX DO XINGU,PA,BRASIL,****,03/08/2010,16:20:00,SIM,FINALIZADA,A-055/CENIPA/2011,SIM,2011-08-01,8,1,NÃO,2010,OUTRO FATOR,1,0,0,0,0,1,PARTICULAR,HELICÓPTERO,ROBINSON HELICOPTER,R44 II,R44,PISTÃO,MONOMOTOR,4.0,2009.0,BRASIL,BRASIL,PARTICULAR,FORA DE AERODROMO,SÃO FÉLIX DO XINGU,CRUZEIRO,PRIVADA,DESTRUÍDA,0
87,87,42565,42565,42565,42565,42565,ACIDENTE,-16.5852777778,54.7241666667,GOIÂNIA,GO,BRASIL,****,13/08/2010,21:00:00,SIM,FINALIZADA,A-085/CENIPA/2011,SIM,2011-09-23,6,1,NÃO,2010,"MANUTENÇÃO DE AERONAVE,OUTRO FATOR,SUPERVISÃO GERENCIAL",3,0,2,0,0,1,INSTRUÇÃO,AVIÃO,PIPER AIRCRAFT,PA-23-160,PA23,PISTÃO,BIMOTOR,5.0,1959.0,BRASIL,BRASIL,INSTRUÇÃO,PROFESSOR URBANO ERNESTO STUMPF,SANTA GENOVEVA/GOIÂNIA,DESCIDA,INSTRUÇÃO,SUBSTANCIAL,0
88,88,42718,42718,42718,42718,42718,INCIDENTE GRAVE,-28.935,-51.5683333333,VERANÓPOLIS,RS,BRASIL,SSVN,08/09/2010,19:10:00,SIM,FINALIZADA,IG-039/CENIPA/2011,SIM,2011-07-21,2,1,SIM,2010,"APLICAÇÃO DE COMANDOS,JULGAMENTO DE PILOTAGEM",2,0,2,0,0,0,INSTRUÇÃO,AVIÃO,AERO BOERO,AB-115,AB11,PISTÃO,MONOMOTOR,2.0,1992.0,BRASIL,BRASIL,INSTRUÇÃO,VERANÓPOLIS,FORA DE AERODROMO,DECOLAGEM,INSTRUÇÃO,LEVE,0
89,89,42723,42723,42723,42723,42723,ACIDENTE,2.8413888889,-60.6922222222,BOA VISTA,RR,BRASIL,SBBV,01/09/2010,13:30:00,SIM,FINALIZADA,A-134/CENIPA/2011,SIM,2011-12-21,4,1,NÃO,2010,"INDISCIPLINA DE VOO,JULGAMENTO DE PILOTAGEM,MANUTENÇÃO DE AERONAVE,SUPERVISÃO GERENCIAL",4,0,4,0,0,0,TÁXI AÉREO,AVIÃO,CESSNA AIRCRAFT,U206F,C206,PISTÃO,MONOMOTOR,6.0,1973.0,BRASIL,BRASIL,TÁXI AÉREO,ATLAS BRASIL CANTANHEDE,SURUCUCU,SUBIDA,TÁXI AÉREO,SUBSTANCIAL,0
90,90,42757,42757,42757,42757,42757,INCIDENTE GRAVE,-23.6261111111,-46.6563888889,SÃO PAULO,SP,BRASIL,SBSP,13/09/2010,19:05:00,SIM,FINALIZADA,IG-549/CENIPA/2014,SIM,2016-06-03,0,1,NÃO,2010,OUTRO FATOR,1,0,0,0,0,1,TÁXI AÉREO,HELICÓPTERO,AGUSTA,A109E,A109,TURBOEIXO,BIMOTOR,8.0,2001.0,BRASIL,BRASIL,TÁXI AÉREO,CONGONHAS,METROPOLITAN OFFICE,TÁXI,TÁXI AÉREO,LEVE,0
91,91,42758,42758,42758,42758,42758,ACIDENTE,-24.05139,-46.84889,ITANHAÉM,SP,BRASIL,****,10/09/2010,14:45:00,SIM,FINALIZADA,A-507/CENIPA/2018,SIM,2019-09-03,1,1,NÃO,2010,"CONDIÇÕES METEOROLÓGICAS ADVERSAS,JULGAMENTO DE PILOTAGEM,PERCEPÇÃO,PLANEJAMENTO DE VOO,POUCA EXPERIÊNCIA DO PILOTO,PROCESSO DECISÓRIO",6,2,3,0,1,0,***,HELICÓPTERO,ROBINSON HELICOPTER,R44,R44,PISTÃO,MONOMOTOR,4.0,1999.0,BRASIL,BRASIL,PARTICULAR,ICA,CAMPO DE MARTE,CRUZEIRO,PRIVADA,DESTRUÍDA,2
92,92,42760,42760,42760,42760,42760,INCIDENTE GRAVE,-22.71056,-47.61944,PIRACICABA,SP,BRASIL,SDPW,10/09/2010,11:10:00,SIM,FINALIZADA,IG-612/CENIPA/2014,SIM,2015-03-20,0,1,SIM,2010,APLICAÇÃO DE COMANDOS,1,0,1,0,0,0,INSTRUÇÃO,AVIÃO,PIPER AIRCRAFT,PA-34-200,PA34,PISTÃO,BIMOTOR,6.0,1972.0,BRASIL,BRASIL,INSTRUÇÃO,PEDRO MORGANTI,FORA DE AERODROMO,CORRIDA APÓS POUSO,INSTRUÇÃO,LEVE,0
93,93,42880,42880,42880,42880,42880,INCIDENTE GRAVE,"-22,9875","-43,3700",RIO DE JANEIRO,RJ,BRASIL,SBJR,17/09/2010,13:55:00,SIM,FINALIZADA,A-552/CENIPA/2016,SIM,2018-09-04,0,1,SIM,2010,"APLICAÇÃO DE COMANDOS,JULGAMENTO DE PILOTAGEM",2,0,2,0,0,0,***,AVIÃO,CESSNA AIRCRAFT,500,C500,JATO,BIMOTOR,7.0,1981.0,BRASIL,BRASIL,PARTICULAR,JACAREPAGUÁ,JACAREPAGUÁ,POUSO,PRIVADA,LEVE,0
94,94,42919,42919,42919,42919,42919,ACIDENTE,-5.3322222222,-56.1661111111,ITAITUBA,PA,BRASIL,****,15/09/2010,18:10:00,SIM,FINALIZADA,A-086/CENIPA/2011,SIM,2011-09-23,9,1,NÃO,2010,"MANUTENÇÃO DE AERONAVE,SUPERVISÃO GERENCIAL",2,0,2,0,0,0,TÁXI AÉREO,AVIÃO,CESSNA AIRCRAFT,T207A,C207,PISTÃO,MONOMOTOR,7.0,1978.0,BRASIL,BRASIL,TÁXI AÉREO,CAIMA,PISTA NAÇÕES UNIDAS,CRUZEIRO,TÁXI AÉREO,SUBSTANCIAL,0
95,95,42921,42921,42921,42921,42921,ACIDENTE,-6.6080555556,-52.8194444444,SÃO FÉLIX DO XINGU,PA,BRASIL,****,15/09/2010,21:50:00,SIM,FINALIZADA,A-049/CENIPA/2012,SIM,2012-07-02,2,1,NÃO,2010,"ATITUDE,CLIMA ORGANIZACIONAL,COMUNICAÇÃO,CONDIÇÕES METEOROLÓGICAS ADVERSAS,CULTURA ORGANIZACIONAL,DESORIENTAÇÃO,DESVIO DE NAVEGAÇÃO,ESTADO EMOCIONAL,ESTRESSE,FADIGA,JULGAMENTO DE PILOTAGEM,LIDERANÇA,MOTIVAÇÃO,ORGANIZAÇÃO DO TRABALHO,POUCA EXPERIÊNCIA DO PILOTO,PROCESSO DECISÓRIO,RELAÇÕES INTERPESSOAIS,SOBRECARGA DE TAREFAS,SUPERVISÃO GERENCIAL",19,14,4,0,1,0,***,HELICÓPTERO,ROBINSON HELICOPTER,R44 II,R44,PISTÃO,MONOMOTOR,4.0,2009.0,BRASIL,BRASIL,PARTICULAR,FORA DE AERODROMO,SÃO FÉLIX DO XINGU,CRUZEIRO,PRIVADA,DESTRUÍDA,4
96,96,42983,42983,42983,42983,42983,ACIDENTE,-5.6177777778,-47.5697222222,IMPERATRIZ,MA,BRASIL,****,30/09/2010,11:37:00,SIM,FINALIZADA,A-040/CENIPA/2011,SIM,2011-07-21,2,1,NÃO,2010,"APLICAÇÃO DE COMANDOS,ATITUDE,INDISCIPLINA DE VOO,JULGAMENTO DE PILOTAGEM,PLANEJAMENTO DE VOO,PLANEJAMENTO GERENCIAL",6,1,5,0,0,0,PARTICULAR,HELICÓPTERO,ROBINSON HELICOPTER,R44 II,R44,PISTÃO,MONOMOTOR,4.0,2005.0,BRASIL,BRASIL,PARTICULAR,PREFEITO RENATO MOREIRA,COMANDANTE CARLOS INÁCIO AGNES,POUSO,PRIVADA,DESTRUÍDA,1
97,97,42997,42997,42997,42997,42997,ACIDENTE,-1.4144444444,-48.4608333333,BELÉM,PA,BRASIL,SBJC,24/09/2010,18:10:00,SIM,FINALIZADA,A-035/CENIPA/2012,SIM,2012-03-22,6,1,NÃO,2010,"MANUTENÇÃO DE AERONAVE,SUPERVISÃO GERENCIAL",2,0,2,0,0,0,TÁXI AÉREO,AVIÃO,NEIVA INDUSTRIA AERONAUTICA,EMB-721C,P32R,PISTÃO,MONOMOTOR,7.0,1976.0,BRASIL,BRASIL,TÁXI AÉREO,BELÉM/BRIGADEIRO PROTÁSIO DE OLIVEIRA,JOÃO CORREA DA ROCHA,DECOLAGEM,TÁXI AÉREO,SUBSTANCIAL,0
98,98,42999,42999,42999,42999,42999,INCIDENTE GRAVE,-2.58694,-44.23611,SÃO LUÍS,MA,BRASIL,SBSL,22/09/2010,21:38:00,SIM,FINALIZADA,IG-581/CENIPA/2019,SIM,2019-08-06,0,1,NÃO,2010,"ATITUDE,FRASEOLOGIA DA TRIPULAÇÃO,INDISCIPLINA DE VOO,JULGAMENTO DE PILOTAGEM,MEMÓRIA,PLANEJAMENTO GERENCIAL",6,2,4,0,0,0,***,AVIÃO,NEIVA INDUSTRIA AERONAUTICA,EMB-711C,P28R,PISTÃO,MONOMOTOR,4.0,1977.0,BRASIL,BRASIL,PARTICULAR,JOÃO SILVA,MARECHAL CUNHA MACHADO,POUSO,PRIVADA,LEVE,0
99,99,43021,43021,43021,43021,43021,ACIDENTE,-28.7775,-55.8144444444,SÃO BORJA,RS,BRASIL,****,01/10/2010,11:30:00,SIM,FINALIZADA,A-592/CENIPA/2014,SIM,2014-10-01,0,1,NÃO,2010,MANUTENÇÃO DE AERONAVE,1,0,1,0,0,0,ESPECIALIZADA,AVIÃO,NEIVA INDUSTRIA AERONAUTICA,EMB-202,IPAN,PISTÃO,MONOMOTOR,1.0,1993.0,BRASIL,BRASIL,ESPECIALIZADA,SÃO BORJA,FORA DE AERODROMO,OUTRA FASE,ESPECIALIZADA,SUBSTANCIAL,0
100,100,43027,43027,43027,43027,43027,INCIDENTE GRAVE,-29.99389,-51.17111,PORTO ALEGRE,RS,BRASIL,SBPA,24/09/2010,20:59:00,SIM,FINALIZADA,IG-521/CENIPA/2017,SIM,2017-11-30,2,1,NÃO,2010,"MANUTENÇÃO DE AERONAVE,PROCESSOS ORGANIZACIONAIS,SUPERVISÃO GERENCIAL",3,1,2,0,0,0,***,AVIÃO,PIPER AIRCRAFT,PA-34-200,PA34,PISTÃO,BIMOTOR,6.0,1972.0,BRASIL,BRASIL,INSTRUÇÃO,SALGADO FILHO,FORA DE AERODROMO,SUBIDA,INSTRUÇÃO,LEVE,0
101,101,43042,43042,43042,43042,43042,INCIDENTE GRAVE,-28.32139,-52.81556,CARAZINHO,RS,BRASIL,SSKZ,15/09/2010,20:00:00,SIM,FINALIZADA,IG-528/CENIPA/2017,SIM,2018-05-17,0,1,NÃO,2010,MANUTENÇÃO DE AERONAVE,1,0,1,0,0,0,***,AVIÃO,NEIVA INDUSTRIA AERONAUTICA,EMB-711T,P28T,PISTÃO,MONOMOTOR,4.0,1980.0,BRASIL,BRASIL,PARTICULAR,CARAZINHO,FORA DE AERODROMO,DECOLAGEM,PRIVADA,NENHUM,0
102,102,43062,43062,43062,43062,43062,ACIDENTE,-16.0802777778,-48.0652777778,NOVO GAMA,GO,BRASIL,****,25/09/2010,16:30:00,SIM,FINALIZADA,A-596/CENIPA/2014,SIM,2014-10-01,1,1,NÃO,2010,"APLICAÇÃO DE COMANDOS,INDISCIPLINA DE VOO,INSTRUÇÃO,JULGAMENTO DE PILOTAGEM,PLANEJAMENTO DE VOO,POUCA EXPERIÊNCIA DO PILOTO,SUPERVISÃO GERENCIAL",7,0,7,0,0,0,PARTICULAR,HELICÓPTERO,ROBINSON HELICOPTER,R44,R44,PISTÃO,MONOMOTOR,4.0,1997.0,BRASIL,BRASIL,PARTICULAR,FORA DE AERODROMO,FORA DE AERODROMO,POUSO,PRIVADA,SUBSTANCIAL,0
103,103,43063,43063,43063,43063,43063,ACIDENTE,2.8375,-63.6416666667,ALTO ALEGRE,RR,BRASIL,****,21/09/2010,17:10:00,SIM,FINALIZADA,A-044/CENIPA/2012,SIM,2012-06-04,2,1,NÃO,2010,"APLICAÇÃO DE COMANDOS,ATITUDE,INSTRUÇÃO,JULGAMENTO DE PILOTAGEM,OUTRO FATOR,PLANEJAMENTO DE VOO,SUPERVISÃO GERENCIAL",7,1,5,0,0,1,TÁXI AÉREO,HELICÓPTERO,HELIBRAS,HB-350B,AS50,TURBOEIXO,MONOMOTOR,6.0,1980.0,BRASIL,BRASIL,TÁXI AÉREO,FORA DE AERODROMO,FORA DE AERODROMO,POUSO,TÁXI AÉREO,SUBSTANCIAL,0
104,104,43070,43070,43070,43070,43070,ACIDENTE,-12.10833,-45.77750,LUÍS EDUARDO MAGALHÃES,BA,BRASIL,*****,05/10/2010,13:30:00,SIM,FINALIZADA,A-601/CENIPA/2018,SIM,2019-08-06,0,1,NÃO,2010,MEMÓRIA,1,1,0,0,0,0,***,AVIÃO,BEECH AIRCRAFT,35-B33,BE33,PISTÃO,MONOMOTOR,4.0,1962.0,BRASIL,BRASIL,PARTICULAR,***,***,POUSO,PRIVADA,SUBSTANCIAL,0
105,105,43256,43256,43256,43256,43256,ACIDENTE,-8.1144444444,-34.9447222222,RECIFE,PE,BRASIL,****,01/10/2010,20:20:00,SIM,FINALIZADA,A-041/CENIPA/2011,SIM,2011-07-21,1,1,NÃO,2010,"ATITUDE,ESQUECIMENTO DO PILOTO,FORMAÇÃO, CAPACITAÇÃO E TREINAMENTO,INDISCIPLINA DE VOO,INSTRUÇÃO,JULGAMENTO DE PILOTAGEM,MOTIVAÇÃO,PERCEPÇÃO,PLANEJAMENTO DE VOO,POUCA EXPERIÊNCIA DO PILOTO,PROCESSO DECISÓRIO,PROCESSOS ORGANIZACIONAIS,SUPERVISÃO GERENCIAL",13,6,7,0,0,0,PARTICULAR,AVIÃO,CESSNA AIRCRAFT,T182T,C182,PISTÃO,MONOMOTOR,4.0,2001.0,BRASIL,BRASIL,PARTICULAR,PEREGRINO FILHO,GUARARAPES - GILBERTO FREYRE,APROXIMAÇÃO FINAL,PRIVADA,LEVE,0
106,106,43262,43262,43262,43262,43262,ACIDENTE,-23.36667,-53.46306,IVATÉ,PR,BRASIL,****,16/11/2010,09:30:00,SIM,FINALIZADA,A-087/CENIPA/2011,SIM,2011-09-23,7,1,NÃO,2010,"JULGAMENTO DE PILOTAGEM,PLANEJAMENTO DE VOO,SUPERVISÃO GERENCIAL",3,0,3,0,0,0,AGRÍCOLA,AVIÃO,NEIVA INDUSTRIA AERONAUTICA,EMB-202,IPAN,PISTÃO,MONOMOTOR,1.0,1994.0,BRASIL,BRASIL,AGRÍCOLA,FORA DE AERODROMO,FORA DE AERODROMO,DECOLAGEM,AGRÍCOLA,SUBSTANCIAL,0
107,107,43282,43282,43282,43282,43282,INCIDENTE GRAVE,,,CAMPO GRANDE,MS,BRASIL,SBCG,18/11/2010,23:08:00,,ATIVA,A DEFINIR,NÃO,,0,1,NÃO,2010,"APLICAÇÃO DE COMANDOS,COORDENAÇÃO DE CABINE,JULGAMENTO DE PILOTAGEM,PLANEJAMENTO DE VOO",4,0,4,0,0,0,TÁXI AÉREO,AVIÃO,EMBRAER,EMB-820C CARAJA,PAT4,TURBOÉLICE,BIMOTOR,7.0,1988.0,BRASIL,BRASIL,TÁXI AÉREO,FORA DE AERODROMO,FORA DE AERODROMO,POUSO,TÁXI AÉREO,SUBSTANCIAL,0
108,108,43294,43294,43294,43294,43294,ACIDENTE,-16.6280555556,-49.3716666667,GOIÂNIA,GO,BRASIL,****,22/11/2010,18:30:00,SIM,FINALIZADA,A-135/CENIPA/2011,SIM,2011-12-21,9,1,NÃO,2010,"APLICAÇÃO DE COMANDOS,JULGAMENTO DE PILOTAGEM",2,0,2,0,0,0,INSTRUÇÃO,HELICÓPTERO,ROBINSON HELICOPTER,R22,R22,PISTÃO,MONOMOTOR,2.0,1995.0,BRASIL,BRASIL,INSTRUÇÃO,AERÓDROMO NACIONAL DE AVIAÇÃO,FORA DE AERODROMO,DECOLAGEM,INSTRUÇÃO,SUBSTANCIAL,0
109,109,43361,43361,43361,43361,43361,ACIDENTE,-28.2452777778,-52.3286111111,PASSO FUNDO,RS,BRASIL,SBPF,30/11/2010,18:20:00,SIM,FINALIZADA,A-086/CENIPA/2012,SIM,2012-08-29,2,1,NÃO,2010,"APLICAÇÃO DE COMANDOS,JULGAMENTO DE PILOTAGEM",2,0,2,0,0,0,INSTRUÇÃO,AVIÃO,PIPER AIRCRAFT,PA-18,PA18,PISTÃO,MONOMOTOR,2.0,1950.0,BRASIL,BRASIL,INSTRUÇÃO,VERANÓPOLIS,LAURO KURTZ,POUSO,INSTRUÇÃO,SUBSTANCIAL,0
110,110,43389,43389,43389,43389,43389,ACIDENTE,-12.7980555556,-41.3247222222,ANDARAÍ,BA,BRASIL,****,09/11/2010,18:30:00,SIM,FINALIZADA,A-057/CENIPA/2011,SIM,2011-08-01,1,1,NÃO,2010,"ATENÇÃO,INDISCIPLINA DE VOO,JULGAMENTO DE PILOTAGEM,PERCEPÇÃO,PLANEJAMENTO DE VOO,PROCESSO DECISÓRIO,SUPERVISÃO GERENCIAL",7,3,4,0,0,0,PARTICULAR,AVIÃO,CIRRUS DESIGN,SR20,SR20,PISTÃO,MONOMOTOR,4.0,2008.0,BRASIL,BRASIL,PARTICULAR,FORA DE AERODROMO,ITABERABA,DECOLAGEM,PRIVADA,SUBSTANCIAL,1
111,111,43390,43390,43390,43390,43390,ACIDENTE,-17.1194444444,-39.23,PRADO,BA,BRASIL,****,23/10/2010,16:10:00,SIM,FINALIZADA,A-056/CENIPA/2011,SIM,2011-08-01,2,1,NÃO,2010,"ATITUDE,CARACTERÍSTICAS DA TAREFA,CULTURA ORGANIZACIONAL,INDISCIPLINA DE VOO,INSTRUÇÃO,JULGAMENTO DE PILOTAGEM,MOTIVAÇÃO,PLANEJAMENTO DE VOO,PLANEJAMENTO GERENCIAL,POUCA EXPERIÊNCIA DO PILOTO,SUPERVISÃO GERENCIAL",11,4,7,0,0,0,ESPECIALIZADA,AVIÃO,EMBRAER,EMB-810C,PA34,PISTÃO,BIMOTOR,4.0,1977.0,BRASIL,BRASIL,ESPECIALIZADA,PORTO SEGURO,FORA DE AERODROMO,DESCIDA,ESPECIALIZADA,LEVE,0
112,112,43393,43393,43393,43393,43393,ACIDENTE,-1.3333333333,-56.4394444444,ORIXIMINÁ,PA,BRASIL,****,31/10/2010,16:35:00,SIM,FINALIZADA,A-043/CENIPA/2013,SIM,2013-08-26,2,1,NÃO,2010,"JULGAMENTO DE PILOTAGEM,PLANEJAMENTO DE VOO",2,0,2,0,0,0,***,AVIÃO,PIPER AIRCRAFT,PA-31,PA31,PISTÃO,BIMOTOR,4.0,1970.0,BRASIL,BRASIL,ESPECIALIZADA,ORIXIMINÁ,FORA DE AERODROMO,ESPECIALIZADA,ESPECIALIZADA,SUBSTANCIAL,0
113,113,43404,43404,43404,43404,43404,ACIDENTE,-22.9791666667,-46.5375,BRAGANÇA PAULISTA,SP,BRASIL,SBBP,15/11/2010,17:30:00,SIM,FINALIZADA,A-002/CENIPA/2013,SIM,2013-07-18,9,1,NÃO,2010,"APLICAÇÃO DE COMANDOS,ATITUDE,CARACTERÍSTICAS DA TAREFA,CULTURA DO GRUPO DE TRABALHO,CULTURA ORGANIZACIONAL,ESTRESSE,FORMAÇÃO, CAPACITAÇÃO E TREINAMENTO,INFRAESTRUTURA AEROPORTUÁRIA,INSTRUÇÃO,POUCA EXPERIÊNCIA DO PILOTO,PROCESSO DECISÓRIO,PROCESSOS ORGANIZACIONAIS,SUPERVISÃO GERENCIAL",13,8,5,0,0,0,INSTRUÇÃO,AVIÃO,NEIVA INDUSTRIA AERONAUTICA,56-C-1,PAUL,PISTÃO,MONOMOTOR,2.0,1962.0,BRASIL,BRASIL,INSTRUÇÃO,ESTADUAL ARTHUR SIQUEIRA,FORA DE AERODROMO,DECOLAGEM,INSTRUÇÃO,SUBSTANCIAL,2
114,114,43446,43446,43446,43446,43446,ACIDENTE,-29.9202777778,-56.6872222222,URUGUAIANA,RS,BRASIL,****,14/11/2010,11:30:00,SIM,FINALIZADA,A-077/CENIPA/2011,SIM,2011-08-29,2,1,NÃO,2010,"JULGAMENTO DE PILOTAGEM,PLANEJAMENTO DE VOO",2,0,2,0,0,0,AGRÍCOLA,AVIÃO,CESSNA AIRCRAFT,A188B,C188,PISTÃO,MONOMOTOR,1.0,1976.0,BRASIL,BRASIL,AGRÍCOLA,FORA DE AERODROMO,FORA DE AERODROMO,ESPECIALIZADA,AGRÍCOLA,SUBSTANCIAL,0
115,115,43449,43449,43449,43449,43449,ACIDENTE,-25.4322222222,-49.53,CAMPO LARGO,PR,BRASIL,SSCF,19/10/2010,15:40:00,SIM,FINALIZADA,A-096/CENIPA/2011,SIM,2011-11-04,2,1,NÃO,2010,"APLICAÇÃO DE COMANDOS,INSTRUÇÃO,JULGAMENTO DE PILOTAGEM,POUCA EXPERIÊNCIA DO PILOTO,SUPERVISÃO GERENCIAL",5,0,5,0,0,0,INSTRUÇÃO,AVIÃO,AERO BOERO,AB-115,AB11,PISTÃO,MONOMOTOR,2.0,1993.0,BRASIL,BRASIL,INSTRUÇÃO,COMANDANTE ANTONIO AMILTON BERALDO,FORA DE AERODROMO,ARREMETIDA NO SOLO,INSTRUÇÃO,SUBSTANCIAL,0
116,116,43450,43450,43450,43450,43450,ACIDENTE,-23.5075,-46.6344444444,SÃO PAULO,SP,BRASIL,SBMT,04/11/2010,10:55:00,SIM,FINALIZADA,A-085/CENIPA/2012,SIM,2012-08-07,6,1,NÃO,2010,"APLICAÇÃO DE COMANDOS,INSTRUÇÃO,JULGAMENTO DE PILOTAGEM,SUPERVISÃO GERENCIAL",4,0,4,0,0,0,***,HELICÓPTERO,ROBINSON HELICOPTER,R22,R22,PISTÃO,MONOMOTOR,2.0,1992.0,BRASIL,BRASIL,INSTRUÇÃO,CAMPO DE MARTE,FORA DE AERODROMO,TÁXI,INSTRUÇÃO,SUBSTANCIAL,0
117,117,43454,43454,43454,43454,43454,ACIDENTE,-23.2333333333,-51.1711111111,LONDRINA,PR,BRASIL,****,12/12/2010,23:33:00,SIM,FINALIZADA,A-071/CENIPA/2012,SIM,2012-07-03,6,1,NÃO,2010,"ATENÇÃO,ATITUDE,COMUNICAÇÃO,CONDIÇÕES METEOROLÓGICAS ADVERSAS,COORDENAÇÃO DE CABINE,DINÂMICA DE EQUIPE,FORMAÇÃO, CAPACITAÇÃO E TREINAMENTO,INDISCIPLINA DE VOO,INSTRUÇÃO,JULGAMENTO DE PILOTAGEM,MEMÓRIA,MOTIVAÇÃO,PERCEPÇÃO,PROCESSO DECISÓRIO,PROCESSOS ORGANIZACIONAIS,SUPERVISÃO GERENCIAL",16,10,5,0,1,0,PARTICULAR,AVIÃO,BEECH AIRCRAFT,C90A,BE9L,TURBOÉLICE,BIMOTOR,8.0,0.0,BRASIL,BRASIL,PARTICULAR,MÁRIO DE ALMEIDA FRANCO,GOVERNADOR JOSÉ RICHA,CIRCUITO DE TRÁFEGO,PRIVADA,DESTRUÍDA,0
118,118,43455,43455,43455,43455,43455,ACIDENTE,-19.8330555556,-42.2408333333,BOM JESUS DO GALHO,MG,BRASIL,****,09/12/2010,21:30:00,SIM,FINALIZADA,A-006/CENIPA/2013,SIM,2013-04-23,1,1,NÃO,2010,"CONDIÇÕES METEOROLÓGICAS ADVERSAS,MANUTENÇÃO DE AERONAVE,POUCA EXPERIÊNCIA DO PILOTO",3,0,2,0,1,0,PARTICULAR,AVIÃO,BEECH AIRCRAFT,95-B55,BE55,PISTÃO,BIMOTOR,6.0,1973.0,BRASIL,BRASIL,PARTICULAR,EURICO DE AGUIAR SALLES,PRESIDENTE JUSCELINO KUBITSCHEK,CRUZEIRO,PRIVADA,DESTRUÍDA,4
119,119,43458,43458,43458,43458,43458,INCIDENTE GRAVE,-9.3019444444,-37.8769444444,ÁGUA BRANCA,AL,BRASIL,****,11/12/2010,11:00:00,SIM,FINALIZADA,IG-583/CENIPA/2016,SIM,2019-10-28,0,1,NÃO,2010,"JULGAMENTO DE PILOTAGEM,MANUTENÇÃO DE AERONAVE,SUPERVISÃO GERENCIAL",3,0,3,0,0,0,***,AVIÃO,EMBRAER,EMB-820C NAVAJO,PA31,PISTÃO,BIMOTOR,5.0,1978.0,BRASIL,BRASIL,ESPECIALIZADA,PAULO AFONSO,FORA DE AERODROMO,VOO A BAIXA ALTURA,ESPECIALIZADA,LEVE,0
120,120,43459,43459,43459,43459,43459,INCIDENTE GRAVE,-23.5075,-46.6344444444,SÃO PAULO,SP,BRASIL,SBMT,28/10/2010,18:35:00,SIM,FINALIZADA,IG-624/CENIPA/2014,SIM,2015-03-06,0,1,SIM,2010,"APLICAÇÃO DE COMANDOS,JULGAMENTO DE PILOTAGEM",2,0,2,0,0,0,INSTRUÇÃO,AVIÃO,AERO BOERO,AB-115,AB11,PISTÃO,MONOMOTOR,3.0,1993.0,BRASIL,BRASIL,INSTRUÇÃO,CAMPO DE MARTE,FORA DE AERODROMO,DECOLAGEM,INSTRUÇÃO,LEVE,0
121,121,43463,43463,43463,43463,43463,INCIDENTE GRAVE,***,***,GOIÂNIA,GO,BRASIL,****,09/12/2010,14:35:00,,ATIVA,A DEFINIR,NÃO,,0,1,NÃO,2010,"COORDENAÇÃO DE CABINE,ESQUECIMENTO DO PILOTO,PLANEJAMENTO DE VOO",3,0,3,0,0,0,INSTRUÇÃO,AVIÃO,PIPER AIRCRAFT,PA-30,PA30,PISTÃO,BIMOTOR,6.0,1968.0,BRASIL,BRASIL,INSTRUÇÃO,FORA DE AERODROMO,FORA DE AERODROMO,DESCIDA,INSTRUÇÃO,NENHUM,0
122,122,43471,43471,43471,43471,43471,ACIDENTE,-23.5297222222,-46.6319444444,SÃO PAULO,SP,BRASIL,****,14/12/2010,20:15:00,SIM,FINALIZADA,A-042/CENIPA/2011,SIM,2011-07-21,11,1,NÃO,2010,"ATITUDE,CULTURA DO GRUPO DE TRABALHO,CULTURA ORGANIZACIONAL,ESTRESSE,INDISCIPLINA DE VOO,JULGAMENTO DE PILOTAGEM,LIDERANÇA,MANUTENÇÃO DE AERONAVE,OUTRO FATOR,PROCESSO DECISÓRIO,SUPERVISÃO GERENCIAL",11,6,4,0,0,1,ESPECIALIZADA,HELICÓPTERO,ROBINSON HELICOPTER,R22,R22,PISTÃO,MONOMOTOR,2.0,1998.0,BRASIL,BRASIL,ESPECIALIZADA,CAMPO DE MARTE,FORA DE AERODROMO,ESPECIALIZADA,ESPECIALIZADA,SUBSTANCIAL,0
123,123,43472,43472,43472,43472,43472,ACIDENTE,-7.0652777778,-41.5194444444,PICOS,PI,BRASIL,SNPC,13/12/2010,12:30:00,SIM,FINALIZADA,A-123/CENIPA/2012,SIM,2012-11-19,5,1,SIM,2010,"APLICAÇÃO DE COMANDOS,INFRAESTRUTURA AEROPORTUÁRIA,MANUTENÇÃO DE AERONAVE,SUPERVISÃO GERENCIAL",4,0,4,0,0,0,TÁXI AÉREO,AVIÃO,CESSNA AIRCRAFT,402B,C402,PISTÃO,BIMOTOR,10.0,1973.0,BRASIL,BRASIL,TÁXI AÉREO,PINTO MARTINS,PICOS,CORRIDA APÓS POUSO,TÁXI AÉREO,SUBSTANCIAL,0
124,124,43628,43628,43628,43628,43628,ACIDENTE,-13.5644444444,-38.9388888889,CAIRU,BA,BRASIL,SDLO,05/01/2011,19:40:00,,ATIVA,A-584/CENIPA/2016,SIM,2019-03-11,0,1,NÃO,2011,"ESQUECIMENTO DO PILOTO,INDISCIPLINA DE VOO",2,0,2,0,0,0,***,AVIÃO,EMBRAER,EMB-820C NAVAJO,PA31,PISTÃO,BIMOTOR,10.0,1976.0,BRASIL,BRASIL,TÁXI AÉREO,DEPUTADO LUÍS EDUARDO MAGALHÃES,FAZENDA PONTAL,POUSO,TÁXI AÉREO,SUBSTANCIAL,0
125,125,43629,43629,43629,43629,43629,ACIDENTE,,,MOGI DAS CRUZES,SP,BRASIL,****,07/01/2011,15:45:00,,ATIVA,A DEFINIR,NÃO,,0,1,NÃO,2011,"ATENÇÃO,ATITUDE,COMUNICAÇÃO,CONDIÇÕES FÍSICAS DO TRABALHO,CULTURA ORGANIZACIONAL,ESTADO EMOCIONAL,INFLUÊNCIA DO MEIO AMBIENTE,INSTRUÇÃO,JULGAMENTO DE PILOTAGEM,MOTIVAÇÃO,POUCA EXPERIÊNCIA DO PILOTO,PROCESSO DECISÓRIO,PROCESSOS ORGANIZACIONAIS,SUPERVISÃO GERENCIAL",14,10,4,0,0,0,INSTRUÇÃO,HELICÓPTERO,ROBINSON HELICOPTER,R22 BETA,R22,PISTÃO,MONOMOTOR,2.0,1991.0,BRASIL,BRASIL,INSTRUÇÃO,FORA DE AERODROMO,FORA DE AERODROMO,MANOBRA,INSTRUÇÃO,SUBSTANCIAL,0
126,126,43633,43633,43633,43633,43633,INCIDENTE GRAVE,***,***,RIBEIRÃO PRETO,SP,BRASIL,SBRP,01/01/2011,19:35:00,,ATIVA,A DEFINIR,NÃO,2020-03-09,10,1,SIM,2011,"APLICAÇÃO DE COMANDOS,CONDIÇÕES METEOROLÓGICAS ADVERSAS,COORDENAÇÃO DE CABINE,INFRAESTRUTURA AEROPORTUÁRIA,JULGAMENTO DE PILOTAGEM,OUTRO FATOR",6,0,4,0,1,1,***,AVIÃO,EMBRAER,EMB-145LR,E145,JATO,BIMOTOR,54.0,2001.0,BRASIL,BRASIL,REGULAR,FORA DE AERODROMO,FORA DE AERODROMO,CORRIDA APÓS POUSO,REGULAR,NENHUM,0
127,127,43657,43657,43657,43657,43657,ACIDENTE,31.1947222222,-54.9472222222,DOM PEDRITO,RS,BRASIL,****,11/01/2011,19:30:00,,FINALIZADA,A-072/CENIPA/2012,SIM,2012-07-23,3,1,NÃO,2011,"APLICAÇÃO DE COMANDOS,INSTRUÇÃO,JULGAMENTO DE PILOTAGEM",3,0,3,0,0,0,AGRÍCOLA,AVIÃO,CESSNA AIRCRAFT,A188B,C188,PISTÃO,MONOMOTOR,1.0,1975.0,BRASIL,BRASIL,AGRÍCOLA,FORA DE AERODROMO,FORA DE AERODROMO,DECOLAGEM,AGRÍCOLA,SUBSTANCIAL,0
128,128,43658,43658,43658,43658,43658,ACIDENTE,-26.4305555556,-49.2775,CORUPÁ,SC,BRASIL,****,03/01/2011,12:00:00,,FINALIZADA,A-102/CENIPA/2012,SIM,2012-09-20,4,1,NÃO,2011,"APLICAÇÃO DE COMANDOS,ATENÇÃO,CARACTERÍSTICAS DA TAREFA,CULTURA ORGANIZACIONAL,ESTADO EMOCIONAL,INFLUÊNCIAS EXTERNAS,MOTIVAÇÃO,PERCEPÇÃO,RELAÇÕES INTERPESSOAIS,SUPERVISÃO GERENCIAL",10,8,2,0,0,0,AGRÍCOLA,AVIÃO,PIPER AIRCRAFT,PA-25-260,PA25,PISTÃO,MONOMOTOR,1.0,1970.0,BRASIL,BRASIL,AGRÍCOLA,FORA DE AERODROMO,FORA DE AERODROMO,OUTRA FASE,AGRÍCOLA,SUBSTANCIAL,1
129,129,43702,43702,43702,43702,43702,ACIDENTE,-9.8802777778,-67.9177777778,RIO BRANCO,AC,BRASIL,****,21/01/2011,17:35:00,,FINALIZADA,A-004/CENIPA/2013,SIM,2013-03-28,8,1,NÃO,2011,"COORDENAÇÃO DE CABINE,DINÂMICA DE EQUIPE,FABRICAÇÃO,JULGAMENTO DE PILOTAGEM,MEMÓRIA,ORGANIZAÇÃO DO TRABALHO,POUCA EXPERIÊNCIA DO PILOTO,PROCESSO DECISÓRIO",8,4,3,1,0,0,TÁXI AÉREO,AVIÃO,CESSNA AIRCRAFT,208B,C208,TURBOÉLICE,MONOMOTOR,11.0,2009.0,BRASIL,BRASIL,TÁXI AÉREO,PLÁCIDO DE CASTRO,TARAUACÁ,APROXIMAÇÃO FINAL,TÁXI AÉREO,SUBSTANCIAL,0
130,130,43703,43703,43703,43703,43703,ACIDENTE,-15.3102777778,-55.155,CAMPO VERDE,MT,BRASIL,****,15/01/2011,19:00:00,,FINALIZADA,A-593/CENIPA/2014,SIM,2014-10-01,0,1,NÃO,2011,"CONDIÇÕES METEOROLÓGICAS ADVERSAS,JULGAMENTO DE PILOTAGEM,PLANEJAMENTO DE VOO",3,0,2,0,1,0,PARTICULAR,AVIÃO,NEIVA INDUSTRIA AERONAUTICA,EMB-202,IPAN,PISTÃO,MONOMOTOR,1.0,2004.0,BRASIL,BRASIL,PARTICULAR,PARQUE ANA COSTA,FORA DE AERODROMO,POUSO,PRIVADA,SUBSTANCIAL,0
131,131,43704,43704,43704,43704,43704,ACIDENTE,-30.5380555556,-50.6702777778,MOSTARDAS,RS,BRASIL,****,17/01/2011,16:00:00,,FINALIZADA,A-088/CENIPA/2011,SIM,2011-09-23,9,1,NÃO,2011,"COMUNICAÇÃO,CULTURA ORGANIZACIONAL,MANUTENÇÃO DE AERONAVE,ORGANIZAÇÃO DO TRABALHO,PROCESSOS ORGANIZACIONAIS,RELAÇÕES INTERPESSOAIS,SUPERVISÃO GERENCIAL",7,5,2,0,0,0,AGRÍCOLA,AVIÃO,NEIVA INDUSTRIA AERONAUTICA,EMB-201,IPAN,PISTÃO,MONOMOTOR,1.0,1975.0,BRASIL,BRASIL,AGRÍCOLA,FORA DE AERODROMO,FORA DE AERODROMO,OUTRA FASE,AGRÍCOLA,DESTRUÍDA,1
132,132,43705,43705,43705,43705,43705,ACIDENTE,-16.684444,-49.121944,SENADOR CANEDO,GO,BRASIL,****,14/01/2011,20:10:00,SIM,FINALIZADA,A-606CENIPA2014,SIM,2016-11-24,3,1,NÃO,2011,"ATITUDE,CONDIÇÕES METEOROLÓGICAS ADVERSAS,DESVIO DE NAVEGAÇÃO,ESTADO EMOCIONAL,OBESIDADE,PROCESSO DECISÓRIO,PUBLICAÇÕES (ATS)",7,4,2,0,1,0,PARTICULAR,AVIÃO,BEECH AIRCRAFT,200,BE20,TURBOÉLICE,BIMOTOR,12.0,1981.0,BRASIL,BRASIL,PARTICULAR,PRESIDENTE JUSCELINO KUBITSCHEK,SANTA GENOVEVA/GOIÂNIA,APROXIMAÇÃO FINAL,PRIVADA,DESTRUÍDA,6
133,133,43706,43706,43706,43706,43706,ACIDENTE,-6.9955555556,-69.7533333333,ENVIRA,AM,BRASIL,****,19/01/2011,22:10:00,,FINALIZADA,A-043/CENIPA/2011,SIM,2011-07-21,7,1,NÃO,2011,MANUTENÇÃO DE AERONAVE,1,0,1,0,0,0,PARTICULAR,AVIÃO,NEIVA INDUSTRIA AERONAUTICA,EMB-721D,P32R,PISTÃO,MONOMOTOR,7.0,1980.0,BRASIL,BRASIL,PARTICULAR,MANUEL URBANO,EIRUNEPÉ,CRUZEIRO,PRIVADA,SUBSTANCIAL,0
134,134,43719,43719,43719,43719,43719,ACIDENTE,-10.9033333333,-37.0830555556,ARACAJU,SE,BRASIL,SNAU,21/12/2010,13:03:00,SIM,FINALIZADA,A-042/CENIPA/2013,SIM,2013-08-22,9,1,NÃO,2010,"APLICAÇÃO DE COMANDOS,ATITUDE,CONDIÇÕES METEOROLÓGICAS ADVERSAS,COORDENAÇÃO DE CABINE,CULTURA ORGANIZACIONAL,DINÂMICA DE EQUIPE,ESTADO EMOCIONAL,INDISCIPLINA DE VOO,INSTRUÇÃO,JULGAMENTO DE PILOTAGEM,ORGANIZAÇÃO DO TRABALHO,PLANEJAMENTO DE VOO,POUCA EXPERIÊNCIA DO PILOTO,PROCESSO DECISÓRIO,SUPERVISÃO GERENCIAL",15,6,8,0,1,0,PARTICULAR,HELICÓPTERO,BELL HELICOPTER,206B,B06,TURBOEIXO,MONOMOTOR,5.0,1969.0,BRASIL,BRASIL,PARTICULAR,AEROCLUBE DE ARACAJU,FORA DE AERODROMO,TÁXI,PRIVADA,DESTRUÍDA,1
135,135,43721,43721,43721,43721,43721,ACIDENTE,-5.2111111111,-40.7041666667,CRATEÚS,CE,BRASIL,SNWS,15/12/2010,09:00:00,SIM,FINALIZADA,A-047/CENIPA/2013,SIM,2013-08-28,4,1,SIM,2010,MANUTENÇÃO DE AERONAVE,1,0,1,0,0,0,TÁXI AÉREO,AVIÃO,BEECH AIRCRAFT,95-B55,BE55,PISTÃO,BIMOTOR,6.0,1966.0,BRASIL,BRASIL,TÁXI AÉREO,FORA DE AERODROMO,DOUTOR LÚCIO LIMA,CORRIDA APÓS POUSO,TÁXI AÉREO,SUBSTANCIAL,0
136,136,43724,43724,43724,43724,43724,ACIDENTE,-22.7097222222,-47.0827777778,COSMÓPOLIS,SP,BRASIL,****,29/12/2010,12:00:00,***,FINALIZADA,A-521/CENIPA/2014,SIM,2014-08-22,0,1,NÃO,2010,JULGAMENTO DE PILOTAGEM,1,0,1,0,0,0,AGRÍCOLA,AVIÃO,NEIVA INDUSTRIA AERONAUTICA,EMB-202,IPAN,PISTÃO,MONOMOTOR,1.0,1993.0,BRASIL,BRASIL,AGRÍCOLA,FORA DE AERODROMO,FORA DE AERODROMO,DECOLAGEM,AGRÍCOLA,SUBSTANCIAL,0
137,137,43725,43725,43725,43725,43725,ACIDENTE,-15.5561111111,-47.3452777778,FORMOSA,GO,BRASIL,SWFR,18/12/2010,20:00:00,SIM,FINALIZADA,A-503/CENIPA/2015,SIM,2015-04-15,0,1,NÃO,2010,"APLICAÇÃO DE COMANDOS,JULGAMENTO DE PILOTAGEM,SUPERVISÃO GERENCIAL",3,0,3,0,0,0,INSTRUÇÃO,PLANADOR,INDÚSTRIA PARANAENSE DE ESTRUTURAS,KW1,GLID,SEM TRAÇÃO,SEM TRAÇÃO,1.0,1983.0,BRASIL,BRASIL,INSTRUÇÃO,FORMOSA,FORMOSA,CORRIDA APÓS POUSO,INSTRUÇÃO,SUBSTANCIAL,0
138,138,43726,43726,43726,43726,43726,ACIDENTE,-29.6125,-55.3711111111,ALEGRETE,RS,BRASIL,****,29/12/2010,10:35:00,SIM,FINALIZADA,A-087/CENIPA/2012,SIM,2012-08-29,6,1,NÃO,2010,"APLICAÇÃO DE COMANDOS,INSTRUÇÃO,JULGAMENTO DE PILOTAGEM,PLANEJAMENTO DE VOO,PLANEJAMENTO GERENCIAL,POUCA EXPERIÊNCIA DO PILOTO",6,0,6,0,0,0,AGRÍCOLA,AVIÃO,NEIVA INDUSTRIA AERONAUTICA,EMB-202,IPAN,PISTÃO,MONOMOTOR,1.0,1992.0,BRASIL,BRASIL,AGRÍCOLA,FORA DE AERODROMO,FORA DE AERODROMO,ESPECIALIZADA,AGRÍCOLA,SUBSTANCIAL,0
139,139,43731,43731,43731,43731,43731,ACIDENTE,-30.1452777778,-51.2255555556,PORTO ALEGRE,RS,BRASIL,****,23/01/2011,10:53:00,,FINALIZADA,A-073/CENIPA/2012,SIM,2012-07-23,3,1,NÃO,2011,"MANUTENÇÃO DE AERONAVE,SUPERVISÃO GERENCIAL",2,0,2,0,0,0,INSTRUÇÃO,HELICÓPTERO,ROBINSON HELICOPTER,R22 BETA,R22,PISTÃO,MONOMOTOR,2.0,1998.0,BRASIL,BRASIL,INSTRUÇÃO,FORA DE AERODROMO,FORA DE AERODROMO,SUBIDA,INSTRUÇÃO,SUBSTANCIAL,0
140,140,43732,43732,43732,43732,43732,INCIDENTE GRAVE,-7.7225,-67.0283333333,PAUINI,AM,BRASIL,SWUI,27/01/2011,21:30:00,,FINALIZADA,IG-024/CENIPA/2011,SIM,2011-06-30,1,1,NÃO,2011,"INFRAESTRUTURA AEROPORTUÁRIA,PLANEJAMENTO GERENCIAL,SUPERVISÃO GERENCIAL",3,0,3,0,0,0,PARTICULAR,AVIÃO,EMBRAER,EMB-810C,PA34,PISTÃO,BIMOTOR,6.0,1978.0,BRASIL,BRASIL,PARTICULAR,PLÁCIDO DE CASTRO,PAUINI,CORRIDA APÓS POUSO,PRIVADA,LEVE,0
141,141,43774,43774,43774,43774,43774,ACIDENTE,,,MIRACATU,SP,BRASIL,****,31/01/2011,12:30:00,,FINALIZADA,A-522/CENIPA/2014,SIM,2014-07-21,1,1,NÃO,2011,MANUTENÇÃO DE AERONAVE,1,0,1,0,0,0,AGRÍCOLA,AVIÃO,PIPER AIRCRAFT,PA-25-235,PA25,PISTÃO,MONOMOTOR,1.0,1968.0,BRASIL,BRASIL,AGRÍCOLA,FORA DE AERODROMO,FORA DE AERODROMO,ESPECIALIZADA,AGRÍCOLA,SUBSTANCIAL,0
142,142,43776,43776,43776,43776,43776,ACIDENTE,-16.855,-53.8461111111,ALTO GARÇAS,MT,BRASIL,SWDC,25/01/2011,14:40:00,,FINALIZADA,A-023/CENIPA/2011,SIM,2011-06-30,3,1,SIM,2011,"APLICAÇÃO DE COMANDOS,JULGAMENTO DE PILOTAGEM,PLANEJAMENTO DE VOO",3,0,3,0,0,0,PARTICULAR,AVIÃO,NEIVA INDUSTRIA AERONAUTICA,EMB-712,P28A,PISTÃO,MONOMOTOR,4.0,1979.0,BRASIL,BRASIL,PARTICULAR,RONDONÓPOLIS,FAZENDA ARCO-ÍRIS,CORRIDA APÓS POUSO,PRIVADA,SUBSTANCIAL,0
143,143,43778,43778,43778,43778,43778,ACIDENTE,-20.5016666667,-54.3155555556,CAMPO GRANDE,MS,BRASIL,****,28/01/2011,20:50:00,,FINALIZADA,A-074/CENIPA/2012,SIM,2012-07-23,5,1,NÃO,2011,"MANUTENÇÃO DE AERONAVE,SUPERVISÃO GERENCIAL",2,0,2,0,0,0,INSTRUÇÃO,AVIÃO,CESSNA AIRCRAFT,150M,C150,PISTÃO,MONOMOTOR,2.0,1977.0,BRASIL,BRASIL,INSTRUÇÃO,SÍTIO POUSO DO AVIADOR,SÍTIO POUSO DO AVIADOR,ARREMETIDA NO AR,INSTRUÇÃO,SUBSTANCIAL,0
144,144,43808,43808,43808,43808,43808,ACIDENTE,-3.9436111111,-50.7627777778,PACAJÁ,PA,BRASIL,****,30/01/2011,15:10:00,,FINALIZADA,A-039/CENIPA/2013,SIM,2013-08-22,4,1,NÃO,2011,"ATITUDE,INDISCIPLINA DE VOO,JULGAMENTO DE PILOTAGEM,POUCA EXPERIÊNCIA DO PILOTO,PROCESSO DECISÓRIO",5,2,3,0,0,0,PARTICULAR,AVIÃO,CESSNA AIRCRAFT,182P,C182,PISTÃO,MONOMOTOR,4.0,1974.0,BRASIL,BRASIL,PARTICULAR,ARAGUAÍNA,FORA DE AERODROMO,ARREMETIDA NO SOLO,PRIVADA,DESTRUÍDA,2
145,145,43809,43809,43809,43809,43809,ACIDENTE,-4.4761111111,-47.6302777778,ITINGA DO MARANHÃO,MA,BRASIL,****,05/02/2011,13:30:00,,FINALIZADA,A-167/CENIPA/2013,SIM,2013-11-29,3,1,NÃO,2011,"JULGAMENTO DE PILOTAGEM,PESSOAL DE APOIO,PLANEJAMENTO DE VOO,PLANEJAMENTO GERENCIAL,SISTEMAS DE APOIO,SUPERVISÃO GERENCIAL",6,1,5,0,0,0,AGRÍCOLA,AVIÃO,CESSNA AIRCRAFT,A188B,C188,PISTÃO,MONOMOTOR,1.0,1983.0,BRASIL,BRASIL,AGRÍCOLA,FAZENDA BOLA SETE,FORA DE AERODROMO,ESPECIALIZADA,AGRÍCOLA,SUBSTANCIAL,1
146,146,43870,43870,43870,43870,43870,INCIDENTE GRAVE,-15.8691666667,-47.9208333333,BRASÍLIA,DF,BRASIL,SBBR,14/02/2011,14:45:00,,FINALIZADA,IG-522/CENIPA/2015,SIM,2015-06-06,0,1,NÃO,2011,"MANUTENÇÃO DE AERONAVE,SUPERVISÃO GERENCIAL",2,0,2,0,0,0,TÁXI AÉREO,AVIÃO,BEECH AIRCRAFT,58,BE58,PISTÃO,BIMOTOR,6.0,1973.0,BRASIL,BRASIL,TÁXI AÉREO,GOVERNADOR ANDRÉ FRANCO MONTORO,PRESIDENTE JUSCELINO KUBITSCHEK,CORRIDA APÓS POUSO,TÁXI AÉREO,LEVE,0
147,147,43899,43899,43899,43899,43899,ACIDENTE,-3.2508333333,-52.2522222222,ALTAMIRA,PA,BRASIL,SBHT,21/02/2011,21:45:00,,FINALIZADA,A-012/CENIPA/2013,SIM,2013-11-29,6,1,SIM,2011,"FORMAÇÃO, CAPACITAÇÃO E TREINAMENTO,MANUTENÇÃO DE AERONAVE,PROCESSOS ORGANIZACIONAIS",3,2,1,0,0,0,REGULAR,AVIÃO,AEROSPATIALE AND ALENIA,ATR-72-212,AT72,TURBOÉLICE,BIMOTOR,71.0,1995.0,BRASIL,BRASIL,REGULAR,VAL DE CANS / JÚLIO CEZAR RIBEIRO,ALTAMIRA,CORRIDA APÓS POUSO,REGULAR,SUBSTANCIAL,0
148,148,43901,43901,43901,43901,43901,INCIDENTE GRAVE,"-22,3389","-47,6581",ARARAS,SP,BRASIL,SDAA,19/02/2011,12:40:00,SIM,FINALIZADA,A-037/CENIPA/2015,NÃO,,0,1,SIM,2011,"APLICAÇÃO DE COMANDOS,COORDENAÇÃO DE CABINE,JULGAMENTO DE PILOTAGEM,POUCA EXPERIÊNCIA DO PILOTO",4,0,4,0,0,0,INSTRUÇÃO,AVIÃO,NEIVA INDUSTRIA AERONAUTICA,56-C,PAUL,PISTÃO,MONOMOTOR,2.0,1960.0,BRASIL,BRASIL,INSTRUÇÃO,ARARAS,ARARAS,POUSO,INSTRUÇÃO,LEVE,0
149,149,43906,43906,43906,43906,43906,ACIDENTE,-15.8430555556,-56.0897222222,SANTO ANTÔNIO DO LEVERGER,MT,BRASIL,SWLV,18/02/2011,14:30:00,,FINALIZADA,A-088/CENIPA/2012,SIM,2012-08-08,1,1,NÃO,2011,"APLICAÇÃO DE COMANDOS,INDISCIPLINA DE VOO,JULGAMENTO DE PILOTAGEM",3,0,3,0,0,0,PARTICULAR,AVIÃO,CESSNA AIRCRAFT,152,C152,PISTÃO,MONOMOTOR,2.0,1978.0,BRASIL,BRASIL,PARTICULAR,ESTÂNCIA SANTA RITA,SANTO ANTÔNIO DE LEVERGER,DECOLAGEM,PRIVADA,DESTRUÍDA,0
150,150,43908,43908,43908,43908,43908,ACIDENTE,-28.4605555556,-53.5766666667,PEJUÇARA,RS,BRASIL,****,15/02/2011,13:10:00,,FINALIZADA,A-050/CENIPA/2012,SIM,2012-07-02,5,1,NÃO,2011,"INDISCIPLINA DE VOO,JULGAMENTO DE PILOTAGEM,PLANEJAMENTO DE VOO,SUPERVISÃO GERENCIAL",4,0,4,0,0,0,AGRÍCOLA,AVIÃO,CESSNA AIRCRAFT,A188B,C188,PISTÃO,MONOMOTOR,1.0,1977.0,BRASIL,BRASIL,AGRÍCOLA,FORA DE AERODROMO,FORA DE AERODROMO,OUTRA FASE,AGRÍCOLA,SUBSTANCIAL,0
151,151,43909,43909,43909,43909,43909,ACIDENTE,,,ITIRAPINA,SP,BRASIL,SDJA,29/01/2011,11:45:00,,FINALIZADA,A-572/CENIPA/2014,SIM,2014-08-15,0,1,NÃO,2011,"APLICAÇÃO DE COMANDOS,POUCA EXPERIÊNCIA DO PILOTO,SUPERVISÃO GERENCIAL",3,0,3,0,0,0,INSTRUÇÃO,AVIÃO,NEIVA INDUSTRIA AERONAUTICA,56-C-1,PAUL,PISTÃO,MONOMOTOR,2.0,1963.0,BRASIL,BRASIL,INSTRUÇÃO,RIO CLARO,DR. JOSÉ DE ARRUDA BOTELHO,ARREMETIDA NO SOLO,INSTRUÇÃO,SUBSTANCIAL,0
152,152,43910,43910,43910,43910,43910,INCIDENTE GRAVE,***,***,MANDAGUAÇU,PR,BRASIL,****,27/01/2011,15:50:00,,ATIVA,IG-540/CENIPA/2017,SIM,2019-05-16,0,1,NÃO,2011,"PLANEJAMENTO DE VOO,SUPERVISÃO GERENCIAL",2,0,2,0,0,0,***,AVIÃO,CIA AERONAUTICA PAULISTA,CAP-4,PAUL,PISTÃO,MONOMOTOR,2.0,1946.0,BRASIL,BRASIL,INSTRUÇÃO,FORA DE AERODROMO,FORA DE AERODROMO,MANOBRA,INSTRUÇÃO,LEVE,0
153,153,43977,43977,43977,43977,43977,ACIDENTE,-10.7405555556,-59.3491666667,ARIPUANÃ,MT,BRASIL,****,28/02/2011,20:45:00,,FINALIZADA,A-089/CENIPA/2011,SIM,2011-09-23,3,1,NÃO,2011,"PESSOAL DE APOIO,SUPERVISÃO GERENCIAL",2,0,2,0,0,0,PARTICULAR,AVIÃO,EMBRAER,EMB-202A,IPAN,PISTÃO,MONOMOTOR,1.0,2009.0,BRASIL,BRASIL,PARTICULAR,FORA DE AERODROMO,FORA DE AERODROMO,CRUZEIRO,PRIVADA,SUBSTANCIAL,0
154,154,43978,43978,43978,43978,43978,ACIDENTE,-25.4111111111,-49.2291666667,CURITIBA,PR,BRASIL,SBBI,02/03/2011,12:46:00,,FINALIZADA,A-075/CENIPA/2012,SIM,2012-07-23,2,1,SIM,2011,INCONSCIÊNCIA,1,1,0,0,0,0,PARTICULAR,AVIÃO,BEECH AIRCRAFT,A36,BE36,PISTÃO,MONOMOTOR,6.0,1980.0,BRASIL,BRASIL,PARTICULAR,BACACHERI,PARÁ DE MINAS,DECOLAGEM,PRIVADA,DESTRUÍDA,1
155,155,43988,43988,43988,43988,43988,ACIDENTE,-18.9127777778,-41.985,GOVERNADOR VALADARES,MG,BRASIL,****,24/02/2011,22:30:00,,FINALIZADA,A-618/CENIPA/2014,SIM,2015-03-06,0,1,NÃO,2011,"JULGAMENTO DE PILOTAGEM,PLANEJAMENTO DE VOO",2,0,2,0,0,0,PARTICULAR,AVIÃO,PIPER AIRCRAFT,PA-28R-200,P28R,PISTÃO,MONOMOTOR,4.0,1973.0,BRASIL,BRASIL,PARTICULAR,NANUQUE,MAJOR BRIGADEIRO TROMPOWSKY,CRUZEIRO,PRIVADA,***,0
156,156,43989,43989,43989,43989,43989,ACIDENTE,-23.3319444444,-51.4997222222,SABÁUDIA,PR,BRASIL,****,25/02/2011,18:00:00,,FINALIZADA,A-103/CENIPA/2012,SIM,2012-09-20,6,1,NÃO,2011,"ATITUDE,COORDENAÇÃO DE CABINE,DINÂMICA DE EQUIPE,FORMAÇÃO, CAPACITAÇÃO E TREINAMENTO,JULGAMENTO DE PILOTAGEM,MANUTENÇÃO DE AERONAVE,MEMÓRIA,PERCEPÇÃO,PROCESSO DECISÓRIO,PROCESSOS ORGANIZACIONAIS",10,7,3,0,0,0,TÁXI AÉREO,AVIÃO,EMBRAER,EMB-820C NAVAJO,PA31,PISTÃO,BIMOTOR,10.0,1976.0,BRASIL,BRASIL,TÁXI AÉREO,FORA DE AERODROMO,FORA DE AERODROMO,DECOLAGEM,TÁXI AÉREO,SUBSTANCIAL,0
157,157,43992,43992,43992,43992,43992,ACIDENTE,-13.3377777778,-45.7794444444,CORRENTINA,BA,BRASIL,****,01/03/2011,13:00:00,,FINALIZADA,A-520/CENIPA/2015,SIM,2015-06-06,1,1,NÃO,2011,"JULGAMENTO DE PILOTAGEM,PESSOAL DE APOIO,PLANEJAMENTO DE VOO,PLANEJAMENTO GERENCIAL,SUPERVISÃO GERENCIAL",5,0,5,0,0,0,PARTICULAR,AVIÃO,EMBRAER,EMB-202A,IPAN,PISTÃO,MONOMOTOR,1.0,2009.0,BRASIL,BRASIL,PARTICULAR,FORA DE AERODROMO,FORA DE AERODROMO,DECOLAGEM,PRIVADA,SUBSTANCIAL,0
158,158,43998,43998,43998,43998,43998,INCIDENTE GRAVE,-20.2580555556,-40.2863888889,VITÓRIA,ES,BRASIL,****,06/03/2011,12:00:00,,FINALIZADA,IG-621/CENIPA/2014,SIM,2015-04-24,3,1,NÃO,2011,MANUTENÇÃO DE AERONAVE,1,0,1,0,0,0,TÁXI AÉREO,HELICÓPTERO,SIKORSKY AIRCRAFT,S-76C,S76,TURBOEIXO,BIMOTOR,14.0,2004.0,BRASIL,BRASIL,TÁXI AÉREO,EURICO DE AGUIAR SALLES,ACERGY CONDOR,SUBIDA,TÁXI AÉREO,LEVE,0
159,159,44001,44001,44001,44001,44001,INCIDENTE GRAVE,***,***,CUIABÁ,MT,BRASIL,****,05/03/2011,13:30:00,,ATIVA,A DEFINIR,SIM,2019-06-28,0,1,NÃO,2011,MANUTENÇÃO DE AERONAVE,1,0,1,0,0,0,***,AVIÃO,EMBRAER,EMB-810D,PA34,PISTÃO,BIMOTOR,6.0,1985.0,BRASIL,BRASIL,TÁXI AÉREO,FORA DE AERODROMO,FORA DE AERODROMO,CORRIDA APÓS POUSO,TÁXI AÉREO,SUBSTANCIAL,0
160,160,44003,44003,44003,44003,44003,ACIDENTE,-16.0294444444,-48.6611111111,CORUMBÁ DE GOIÁS,GO,BRASIL,****,06/03/2011,18:00:00,,FINALIZADA,A-066/CENIPA/2013,SIM,2013-10-10,4,1,NÃO,2011,"INFRAESTRUTURA AEROPORTUÁRIA,JULGAMENTO DE PILOTAGEM,PLANEJAMENTO DE VOO,PROCESSO DECISÓRIO",4,1,3,0,0,0,PARTICULAR,HELICÓPTERO,EUROCOPTER FRANCE,AS 350 B2,AS50,TURBOEIXO,MONOMOTOR,6.0,2009.0,BRASIL,BRASIL,PARTICULAR,CATALÃO,FAZENDA SANTA MÔNICA,APROXIMAÇÃO FINAL,PRIVADA,SUBSTANCIAL,0
161,161,44078,44078,44078,44078,44078,ACIDENTE,-8.9322222222,-72.7811111111,MARECHAL THAUMATURGO,AC,BRASIL,****,07/03/2011,17:35:00,,FINALIZADA,A-025/CENIPA/2011,SIM,2011-06-30,2,1,NÃO,2011,"MANUTENÇÃO DE AERONAVE,SUPERVISÃO GERENCIAL",2,0,2,0,0,0,PARTICULAR,AVIÃO,NEIVA INDUSTRIA AERONAUTICA,EMB-720D,PA32,PISTÃO,MONOMOTOR,7.0,1990.0,BRASIL,BRASIL,PARTICULAR,FORA DE AERODROMO,FORA DE AERODROMO,SUBIDA,PRIVADA,SUBSTANCIAL,0
162,162,44079,44079,44079,44079,44079,ACIDENTE,0,0,SANTARÉM,PA,BRASIL,****,11/03/2011,17:26:00,,ATIVA,A DEFINIR,SIM,2019-08-06,0,1,NÃO,2011,"INDISCIPLINA DE VOO,PLANEJAMENTO DE VOO,SUPERVISÃO GERENCIAL",3,0,3,0,0,0,***,AVIÃO,BEECH AIRCRAFT,A36,BE36,PISTÃO,MONOMOTOR,6.0,1972.0,BRASIL,BRASIL,PARTICULAR,FORA DE AERODROMO,FORA DE AERODROMO,CIRCUITO DE TRÁFEGO,PRIVADA,SUBSTANCIAL,0
163,163,44081,44081,44081,44081,44081,ACIDENTE,-13.1863888889,-45.68,CORRENTINA,BA,BRASIL,****,05/03/2011,12:00:00,,FINALIZADA,A-513/CENIPA/2015,SIM,2016-07-29,3,1,NÃO,2011,"ATITUDE,CULTURA ORGANIZACIONAL,DINÂMICA DE EQUIPE,PERCEPÇÃO,PESSOAL DE APOIO,PLANEJAMENTO DE VOO,PROCESSOS ORGANIZACIONAIS,SUPERVISÃO GERENCIAL",8,5,3,0,0,0,AGRÍCOLA,AVIÃO,EMBRAER,EMB-202A,IPAN,PISTÃO,MONOMOTOR,1.0,2008.0,BRASIL,BRASIL,AGRÍCOLA,FORA DE AERODROMO,FORA DE AERODROMO,ESPECIALIZADA,AGRÍCOLA,SUBSTANCIAL,0
164,164,44118,44118,44118,44118,44118,ACIDENTE,-10.9033333333,-37.0830555556,ARACAJU,SE,BRASIL,SNAU,18/03/2011,20:00:00,SIM,FINALIZADA,A-590/CENIPA/2016,SIM,2019-04-08,0,1,NÃO,2011,"COORDENAÇÃO DE CABINE,INDISCIPLINA DE VOO,INSTRUÇÃO,JULGAMENTO DE PILOTAGEM,OUTRO FATOR,PLANEJAMENTO DE VOO,POUCA EXPERIÊNCIA DO PILOTO,SUPERVISÃO GERENCIAL",8,0,7,0,0,1,***,HELICÓPTERO,ROBINSON HELICOPTER,R44 II,R44,PISTÃO,MONOMOTOR,4.0,2006.0,BRASIL,BRASIL,PARTICULAR,FORA DE AERODROMO,FORA DE AERODROMO,TÁXI,PRIVADA,SUBSTANCIAL,0
165,165,44140,44140,44140,44140,44140,ACIDENTE,-23.1494444444,-46.5619444444,ATIBAIA,SP,BRASIL,****,27/03/2011,20:15:00,,FINALIZADA,A-584/CENIPA/2014,SIM,2014-08-15,1,1,NÃO,2011,"INSTRUÇÃO,JULGAMENTO DE PILOTAGEM,PLANEJAMENTO DE VOO,SUPERVISÃO GERENCIAL",4,0,4,0,0,0,PARTICULAR,HELICÓPTERO,ROBINSON HELICOPTER,R44,R44,PISTÃO,MONOMOTOR,4.0,2000.0,BRASIL,BRASIL,PARTICULAR,FORA DE AERODROMO,FORA DE AERODROMO,DECOLAGEM,PRIVADA,SUBSTANCIAL,0
166,166,44188,44188,44188,44188,44188,ACIDENTE,***,***,GOIÂNIA,GO,BRASIL,****,31/03/2011,14:00:00,,ATIVA,A DEFINIR,NÃO,,0,1,NÃO,2011,INDISCIPLINA DE VOO,1,0,1,0,0,0,PARTICULAR,AVIÃO,CESSNA AIRCRAFT,210L,C210,PISTÃO,MONOMOTOR,6.0,1973.0,BRASIL,BRASIL,PARTICULAR,AERÓDROMO NACIONAL DE AVIAÇÃO,AERÓDROMO NACIONAL DE AVIAÇÃO,TÁXI,PRIVADA,NENHUM,0
167,167,44244,44244,44244,44244,44244,INCIDENTE GRAVE,***,***,BRASÍLIA,DF,BRASIL,SBBR,30/03/2011,20:25:00,SIM,FINALIZADA,IG-523/CENIPA/2018,SIM,2019-10-28,0,1,SIM,2011,"APLICAÇÃO DE COMANDOS,OUTRO FATOR",2,0,1,0,0,1,***,AVIÃO,CESSNA AIRCRAFT,S550,C550,JATO,BIMOTOR,10.0,1988.0,BRASIL,BRASIL,TÁXI AÉREO,FORA DE AERODROMO,FORA DE AERODROMO,CORRIDA APÓS POUSO,TÁXI AÉREO,LEVE,0
168,168,44248,44248,44248,44248,44248,ACIDENTE,23.7816666667,-46.3405555556,SANTO ANDRÉ,SP,BRASIL,****,08/04/2011,20:10:00,SIM,FINALIZADA,A-024/CENIPA/2013,SIM,2013-07-30,5,1,NÃO,2011,"ATITUDE,CONDIÇÕES METEOROLÓGICAS ADVERSAS,JULGAMENTO DE PILOTAGEM,PLANEJAMENTO DE VOO",4,1,2,0,1,0,PARTICULAR,HELICÓPTERO,BELL HELICOPTER,206B,B06,TURBOEIXO,MONOMOTOR,5.0,1998.0,BRASIL,BRASIL,PARTICULAR,FORA DE AERODROMO,FORA DE AERODROMO,CRUZEIRO,PRIVADA,DESTRUÍDA,2
169,169,44316,44316,44316,44316,44316,ACIDENTE,2.8105555556,-62.0408333333,ALTO ALEGRE,RR,BRASIL,****,06/04/2011,20:25:00,SIM,FINALIZADA,A-025/CENIPA/2013,SIM,2013-07-30,2,1,NÃO,2011,"COORDENAÇÃO DE CABINE,CULTURA ORGANIZACIONAL,ESTADO EMOCIONAL,LIDERANÇA",4,3,1,0,0,0,TÁXI AÉREO,HELICÓPTERO,HELIBRAS,AS 355 F2,AS55,TURBOEIXO,BIMOTOR,6.0,1988.0,BRASIL,BRASIL,TÁXI AÉREO,SURUCUCU,ATLAS BRASIL CANTANHEDE,DESCIDA,TÁXI AÉREO,DESTRUÍDA,3
170,170,44336,44336,44336,44336,44336,ACIDENTE,-26.8327777778,-49.0936111111,BLUMENAU,SC,BRASIL,SSBL,12/04/2011,11:30:00,SIM,FINALIZADA,A-586/CENIPA/2014,SIM,2014-08-22,1,1,SIM,2011,"APLICAÇÃO DE COMANDOS,JULGAMENTO DE PILOTAGEM,POUCA EXPERIÊNCIA DO PILOTO,SUPERVISÃO GERENCIAL",4,0,4,0,0,0,INSTRUÇÃO,AVIÃO,AERO BOERO,AB-115,AB11,PISTÃO,MONOMOTOR,2.0,1991.0,BRASIL,BRASIL,INSTRUÇÃO,BLUMENAU,BLUMENAU,DECOLAGEM,INSTRUÇÃO,SUBSTANCIAL,0
171,171,44339,44339,44339,44339,44339,ACIDENTE,-13.54,-59.2572222222,SAPEZAL,MT,BRASIL,****,08/04/2011,13:00:00,SIM,FINALIZADA,A-056/CENIPA/2013,SIM,2013-09-19,2,1,NÃO,2011,"JULGAMENTO DE PILOTAGEM,PESSOAL DE APOIO,PLANEJAMENTO DE VOO",3,0,3,0,0,0,AGRÍCOLA,AVIÃO,AIR TRACTOR,AT-502B,AT5T,TURBOÉLICE,MONOMOTOR,1.0,2002.0,BRASIL,BRASIL,AGRÍCOLA,FORA DE AERODROMO,FORA DE AERODROMO,DECOLAGEM,AGRÍCOLA,SUBSTANCIAL,0
172,172,44377,44377,44377,44377,44377,ACIDENTE,-21.5997222222,-48.8327777778,ITÁPOLIS,SP,BRASIL,SDIO,09/04/2011,14:50:00,SIM,FINALIZADA,A-089/CENIPA/2012,SIM,2012-08-29,11,1,NÃO,2011,"APLICAÇÃO DE COMANDOS,INSTRUÇÃO,JULGAMENTO DE PILOTAGEM,POUCA EXPERIÊNCIA DO PILOTO,SUPERVISÃO GERENCIAL",5,0,5,0,0,0,INSTRUÇÃO,AVIÃO,PIPER AIRCRAFT,PA-18-150,PA18,PISTÃO,MONOMOTOR,2.0,1994.0,BRASIL,BRASIL,INSTRUÇÃO,FORA DE AERODROMO,FORA DE AERODROMO,CORRIDA APÓS POUSO,INSTRUÇÃO,SUBSTANCIAL,0
173,173,44399,44399,44399,44399,44399,ACIDENTE,-20.6547222222,-41.2519444444,CASTELO,ES,BRASIL,****,16/04/2011,16:15:00,SIM,FINALIZADA,A-513/CENIPA/2016,SIM,2016-04-22,1,1,NÃO,2011,"INSTRUÇÃO,JULGAMENTO DE PILOTAGEM,PLANEJAMENTO DE VOO,SUPERVISÃO GERENCIAL",4,0,4,0,0,0,INSTRUÇÃO,AVIÃO,NEIVA INDUSTRIA AERONAUTICA,EMB-712,P28A,PISTÃO,MONOMOTOR,4.0,1986.0,BRASIL,BRASIL,INSTRUÇÃO,FORA DE AERODROMO,JOÃO MONTEIRO,MANOBRA,INSTRUÇÃO,SUBSTANCIAL,0
174,174,44402,44402,44402,44402,44402,ACIDENTE,-23.1816666667,-46.9436111111,BAURU,SP,BRASIL,SBBU,19/04/2011,13:35:00,SIM,FINALIZADA,A-008/CENIPA/2013,SIM,2013-07-18,2,1,SIM,2011,MANUTENÇÃO DE AERONAVE,1,0,1,0,0,0,PARTICULAR,AVIÃO,EMBRAER,EMB-820C NAVAJO,PA31,PISTÃO,BIMOTOR,8.0,1980.0,BRASIL,BRASIL,PARTICULAR,CAMPO DE MARTE,BAURU,CORRIDA APÓS POUSO,PRIVADA,SUBSTANCIAL,0
175,175,44436,44436,44436,44436,44436,ACIDENTE,3.0411111111,-60.0505555556,MANAUS,AM,BRASIL,SBEG,21/04/2011,18:51:00,SIM,FINALIZADA,A-555/CENIPA/2014,SIM,2015-04-24,1,1,NÃO,2011,"APLICAÇÃO DE COMANDOS,ATITUDE,CULTURA DO GRUPO DE TRABALHO,CULTURA ORGANIZACIONAL,INSTRUÇÃO,JULGAMENTO DE PILOTAGEM,ORGANIZAÇÃO DO TRABALHO,PLANEJAMENTO DE VOO,PROCESSO DECISÓRIO",9,5,4,0,0,0,PARTICULAR,AVIÃO,EMBRAER,EMB-810C,PA34,PISTÃO,BIMOTOR,6.0,1977.0,BRASIL,BRASIL,PARTICULAR,EDUARDO GOMES,MAESTRO WILSON FONSECA,DECOLAGEM,PRIVADA,DESTRUÍDA,7
176,176,44437,44437,44437,44437,44437,ACIDENTE,-23.3302777778,-51.1366666667,LONDRINA,PR,BRASIL,SBLO,18/04/2011,17:34:00,SIM,FINALIZADA,A-090/CENIPA/2012,SIM,2012-08-29,4,1,SIM,2011,"APLICAÇÃO DE COMANDOS,INSTRUÇÃO,JULGAMENTO DE PILOTAGEM,SUPERVISÃO GERENCIAL",4,0,4,0,0,0,INSTRUÇÃO,AVIÃO,AERO BOERO,AB-115,AB11,PISTÃO,MONOMOTOR,2.0,1992.0,BRASIL,BRASIL,INSTRUÇÃO,GOVERNADOR JOSÉ RICHA,GOVERNADOR JOSÉ RICHA,CORRIDA APÓS POUSO,INSTRUÇÃO,SUBSTANCIAL,0
177,177,44458,44458,44458,44458,44458,INCIDENTE GRAVE,***,***,BELO HORIZONTE,MG,BRASIL,SBPR,28/04/2011,10:55:00,SIM,ATIVA,IG-538/CENIPA/2017,SIM,2018-06-25,1,1,NÃO,2011,"MANUTENÇÃO DE AERONAVE,SUPERVISÃO GERENCIAL",2,0,2,0,0,0,***,AVIÃO,CESSNA AIRCRAFT,152,C152,PISTÃO,MONOMOTOR,2.0,1978.0,BRASIL,BRASIL,INSTRUÇÃO,FORA DE AERODROMO,FORA DE AERODROMO,MANOBRA,INSTRUÇÃO,LEVE,0
178,178,44463,44463,44463,44463,44463,ACIDENTE,-25.5227777778,-49.6,BALSA NOVA,PR,BRASIL,SSTH,30/04/2011,20:50:00,SIM,FINALIZADA,A-502/CENIPA/2015,SIM,2015-07-21,1,1,NÃO,2011,"INSTRUÇÃO,JULGAMENTO DE PILOTAGEM,SUPERVISÃO GERENCIAL",3,0,3,0,0,0,INSTRUÇÃO,PLANADOR,INDÚSTRIA PARANAENSE DE ESTRUTURAS,IPE-02B,GLID,SEM TRAÇÃO,SEM TRAÇÃO,2.0,1988.0,BRASIL,BRASIL,INSTRUÇÃO,FAZENDA THÁLIA,FAZENDA THÁLIA,DECOLAGEM,INSTRUÇÃO,SUBSTANCIAL,0
179,179,44464,44464,44464,44464,44464,ACIDENTE,-19.2466666667,-53.1688888889,ÁGUA CLARA,MS,BRASIL,****,01/05/2011,11:45:00,SIM,FINALIZADA,A-090/CENIPA/2011,SIM,2011-09-23,6,1,NÃO,2011,"CONDIÇÕES METEOROLÓGICAS ADVERSAS,INDISCIPLINA DE VOO,JULGAMENTO DE PILOTAGEM,PLANEJAMENTO DE VOO",4,0,3,0,1,0,PARTICULAR,AVIÃO,NEIVA INDUSTRIA AERONAUTICA,EMB-711ST,P28T,PISTÃO,MONOMOTOR,4.0,1985.0,BRASIL,BRASIL,PARTICULAR,FORA DE AERODROMO,FORA DE AERODROMO,CORRIDA APÓS POUSO,PRIVADA,SUBSTANCIAL,0
180,180,44484,44484,44484,44484,44484,ACIDENTE,-20.8219444444,-49.4280555556,SÃO JOSÉ DO RIO PRETO,SP,BRASIL,****,02/05/2011,17:40:00,SIM,FINALIZADA,A-020/CENIPA/2013,SIM,2013-12-30,3,1,NÃO,2011,"APLICAÇÃO DE COMANDOS,ATITUDE,CULTURA DO GRUPO DE TRABALHO,CULTURA ORGANIZACIONAL,ESTRESSE,FORMAÇÃO, CAPACITAÇÃO E TREINAMENTO,INDISCIPLINA DE VOO,JULGAMENTO DE PILOTAGEM,MANUTENÇÃO DE AERONAVE,MOTIVAÇÃO,ORGANIZAÇÃO DO TRABALHO,OUTRO FATOR,PROCESSO DECISÓRIO,RELAÇÕES INTERPESSOAIS,SUPERVISÃO GERENCIAL",15,9,5,0,0,1,PARTICULAR,HELICÓPTERO,HELIBRAS,HB-350B,AS50,TURBOEIXO,MONOMOTOR,6.0,1984.0,BRASIL,BRASIL,PARTICULAR,PROFESSOR ERIBERTO MANOEL REINO,FORA DE AERODROMO,SUBIDA,PRIVADA,DESTRUÍDA,0
181,181,44528,44528,44528,44528,44528,ACIDENTE,-3.5447222222,-49.2619444444,BREU BRANCO,PA,BRASIL,****,14/05/2011,14:30:00,,FINALIZADA,A-050/CENIPA/2013,SIM,2013-09-10,1,1,NÃO,2011,"ATITUDE,CONDIÇÕES METEOROLÓGICAS ADVERSAS,JULGAMENTO DE PILOTAGEM,MOTIVAÇÃO,PLANEJAMENTO DE VOO,POUCA EXPERIÊNCIA DO PILOTO,PROCESSO DECISÓRIO",7,3,3,0,1,0,PARTICULAR,AVIÃO,CESSNA AIRCRAFT,210M,C210,PISTÃO,MONOMOTOR,6.0,1977.0,BRASIL,BRASIL,PARTICULAR,WILMA REBELO,FORA DE AERODROMO,CRUZEIRO,PRIVADA,DESTRUÍDA,3
182,182,44538,44538,44538,44538,44538,ACIDENTE,2.6955555556,-60.8141666667,BOA VISTA,RR,BRASIL,****,23/05/2011,10:50:00,SIM,FINALIZADA,A-044/CENIPA/2013,SIM,2013-08-27,3,1,NÃO,2011,"APLICAÇÃO DE COMANDOS,INSTRUÇÃO,JULGAMENTO DE PILOTAGEM",3,0,3,0,0,0,PARTICULAR,AVIÃO,CESSNA AIRCRAFT,208B,C208,TURBOÉLICE,MONOMOTOR,11.0,1992.0,BRASIL,BRASIL,PARTICULAR,BARRA DO VENTO,ATLAS BRASIL CANTANHEDE,DECOLAGEM,PRIVADA,DESTRUÍDA,0
183,183,44539,44539,44539,44539,44539,ACIDENTE,-16.7027777778,-49.3925,GOIÂNIA,GO,BRASIL,****,22/05/2011,15:30:00,SIM,FINALIZADA,A-091/CENIPA/2012,SIM,2012-08-29,3,1,NÃO,2011,"INDISCIPLINA DE VOO,JULGAMENTO DE PILOTAGEM,PLANEJAMENTO DE VOO",3,0,3,0,0,0,PARTICULAR,AVIÃO,EMBRAER,EMB-810D,PA34,PISTÃO,BIMOTOR,6.0,1992.0,BRASIL,BRASIL,PARTICULAR,FORA DE AERODROMO,FORA DE AERODROMO,DESCIDA,PRIVADA,LEVE,0
184,184,44545,44545,44545,44545,44545,ACIDENTE,-4.8833333333,-65.3569444444,COARI,AM,BRASIL,****,24/05/2011,13:43:00,SIM,ATIVA,A-531/CENIPA/2016,SIM,2018-12-04,2,1,SIM,2011,"APLICAÇÃO DE COMANDOS,ATENÇÃO,COORDENAÇÃO DE CABINE,FORMAÇÃO, CAPACITAÇÃO E TREINAMENTO,INSTRUÇÃO,JULGAMENTO DE PILOTAGEM,MEMÓRIA,PROCESSO DECISÓRIO",8,4,4,0,0,0,***,AVIÃO,EMBRAER,EMB-110P1,E110,TURBOÉLICE,BIMOTOR,21.0,1987.0,BRASIL,BRASIL,TÁXI AÉREO,FORA DE AERODROMO,TEFÉ,DECOLAGEM,TÁXI AÉREO,SUBSTANCIAL,0
185,185,44549,44549,44549,44549,44549,ACIDENTE,-13.7772222222,-44.4644444444,CORIBE,BA,BRASIL,SDKE,04/02/2011,14:00:00,,FINALIZADA,A-036/CENIPA/2012,SIM,2012-03-22,4,1,NÃO,2011,"ATITUDE,INFRAESTRUTURA AEROPORTUÁRIA,JULGAMENTO DE PILOTAGEM,PLANEJAMENTO DE VOO,SISTEMAS DE APOIO,SUPERVISÃO GERENCIAL",6,2,4,0,0,0,PARTICULAR,AVIÃO,NEIVA INDUSTRIA AERONAUTICA,EMB-710C,P28B,PISTÃO,MONOMOTOR,4.0,1976.0,BRASIL,BRASIL,PARTICULAR,SANTA MARIA DA VITÓRIA,CORIBE,CORRIDA APÓS POUSO,PRIVADA,LEVE,1
186,186,44553,44553,44553,44553,44553,INCIDENTE GRAVE,0,0,PONTA DE PEDRAS,PA,BRASIL,****,31/05/2011,20:30:00,SIM,ATIVA,A DEFINIR,SIM,2019-04-08,0,1,NÃO,2011,"JULGAMENTO DE PILOTAGEM,MANUTENÇÃO DE AERONAVE,SUPERVISÃO GERENCIAL",3,0,3,0,0,0,***,AVIÃO,EMBRAER,EMB-820C NAVAJO,PA31,PISTÃO,BIMOTOR,10.0,1980.0,BRASIL,BRASIL,TÁXI AÉREO,FORA DE AERODROMO,FORA DE AERODROMO,CRUZEIRO,TÁXI AÉREO,NENHUM,0
187,187,44577,44577,44577,44577,44577,ACIDENTE,-13.64,-45.3313888889,CORRENTINA,BA,BRASIL,****,24/05/2011,16:30:00,SIM,FINALIZADA,A-126/CENIPA/2012,SIM,2012-12-28,2,1,NÃO,2011,"APLICAÇÃO DE COMANDOS,ATITUDE,CULTURA ORGANIZACIONAL,INDISCIPLINA DE VOO,INFLUÊNCIAS EXTERNAS,JULGAMENTO DE PILOTAGEM,MOTIVAÇÃO,PROCESSO DECISÓRIO,PROCESSOS ORGANIZACIONAIS,RELAÇÕES INTERPESSOAIS,SUPERVISÃO GERENCIAL",11,7,4,0,0,0,PARTICULAR,AVIÃO,EMBRAER,EMB-810C,PA34,PISTÃO,BIMOTOR,6.0,1981.0,BRASIL,BRASIL,PARTICULAR,SANTA GENOVEVA/GOIÂNIA,ORIÇANGA DE ABREU,CORRIDA APÓS POUSO,PRIVADA,SUBSTANCIAL,0
188,188,44579,44579,44579,44579,44579,ACIDENTE,-8.2844444444,-36.0108333333,CARUARU,PE,BRASIL,****,04/06/2011,13:00:00,SIM,FINALIZADA,A-533/CENIPA/2015,SIM,2015-07-07,1,1,NÃO,2011,"APLICAÇÃO DE COMANDOS,ATENÇÃO,COMUNICAÇÃO,COORDENAÇÃO DE CABINE,DINÂMICA DE EQUIPE,PERCEPÇÃO,PLANEJAMENTO DE VOO",7,4,3,0,0,0,INSTRUÇÃO,AVIÃO,CIA AERONAUTICA PAULISTA,CAP-4,PAUL,PISTÃO,MONOMOTOR,2.0,1946.0,BRASIL,BRASIL,INSTRUÇÃO,OSCAR LARANJEIRAS,OSCAR LARANJEIRAS,CIRCUITO DE TRÁFEGO,INSTRUÇÃO,SUBSTANCIAL,0
189,189,44597,44597,44597,44597,44597,INCIDENTE GRAVE,-4.8833333333,-65.3563888889,COARI,AM,BRASIL,****,03/06/2011,19:00:00,SIM,FINALIZADA,IG-518/CENIPA/2016,SIM,2016-06-23,1,1,NÃO,2011,"JULGAMENTO DE PILOTAGEM,PLANEJAMENTO DE VOO,SUPERVISÃO GERENCIAL",3,0,3,0,0,0,TÁXI AÉREO,HELICÓPTERO,SIKORSKY AIRCRAFT,S-61N,S61,TURBOEIXO,BIMOTOR,21.0,1980.0,BRASIL,BRASIL,TÁXI AÉREO,FORA DE AERODROMO,FORA DE AERODROMO,SUBIDA,TÁXI AÉREO,SUBSTANCIAL,0
190,190,44611,44611,44611,44611,44611,INCIDENTE GRAVE,22.7552777778,47.2680555556,AMERICANA,SP,BRASIL,****,04/06/2011,14:00:00,SIM,FINALIZADA,IG-585/CENIPA/2014,SIM,2016-06-03,1,1,SIM,2011,"JULGAMENTO DE PILOTAGEM,MANUTENÇÃO DE AERONAVE,SUPERVISÃO GERENCIAL",3,0,3,0,0,0,PARTICULAR,AVIÃO,CESSNA AIRCRAFT,172RG,C72R,PISTÃO,MONOMOTOR,4.0,1982.0,BRASIL,BRASIL,PARTICULAR,FORA DE AERODROMO,FORA DE AERODROMO,CORRIDA APÓS POUSO,PRIVADA,LEVE,0
191,191,44647,44647,44647,44647,44647,ACIDENTE,-12.9086111111,-38.3225,SALVADOR,BA,BRASIL,SBSV,18/06/2011,19:07:00,SIM,FINALIZADA,A-115/CENIPA/2012,SIM,2012-10-17,5,1,NÃO,2011,INFLUÊNCIA DO MEIO AMBIENTE,1,1,0,0,0,0,INSTRUÇÃO,AVIÃO,CESSNA AIRCRAFT,150J,C150,PISTÃO,MONOMOTOR,2.0,1969.0,BRASIL,BRASIL,INSTRUÇÃO,DEPUTADO LUÍS EDUARDO MAGALHÃES,DEPUTADO LUÍS EDUARDO MAGALHÃES,CIRCUITO DE TRÁFEGO,INSTRUÇÃO,LEVE,0
192,192,44649,44649,44649,44649,44649,INCIDENTE GRAVE,-12.9086111111,-38.3225,SALVADOR,BA,BRASIL,****,20/06/2011,17:20:00,SIM,ATIVA,IG-589/CENIPA/2016,SIM,2019-06-28,1,1,NÃO,2011,"MANUTENÇÃO DE AERONAVE,SUPERVISÃO GERENCIAL",2,0,2,0,0,0,***,AVIÃO,CESSNA AIRCRAFT,150E,C150,PISTÃO,MONOMOTOR,2.0,1965.0,BRASIL,BRASIL,INSTRUÇÃO,FORA DE AERODROMO,FORA DE AERODROMO,MANOBRA,INSTRUÇÃO,NENHUM,0
193,193,44652,44652,44652,44652,44652,INCIDENTE GRAVE,***,***,NOVO HAMBURGO,RS,BRASIL,SSNH,19/06/2011,13:00:00,,ATIVA,A DEFINIR,SIM,2018-12-04,5,1,SIM,2011,"APLICAÇÃO DE COMANDOS,ATITUDE,COORDENAÇÃO DE CABINE,INFRAESTRUTURA AEROPORTUÁRIA,JULGAMENTO DE PILOTAGEM,PLANEJAMENTO DE VOO",6,1,5,0,0,0,***,AVIÃO,NEIVA INDUSTRIA AERONAUTICA,EMB-712,P28A,PISTÃO,MONOMOTOR,4.0,1980.0,BRASIL,BRASIL,INSTRUÇÃO,FORA DE AERODROMO,FORA DE AERODROMO,POUSO,INSTRUÇÃO,LEVE,0
194,194,44656,44656,44656,44656,44656,INCIDENTE GRAVE,-19.8263888889,-40.7388888889,ARACRUZ,ES,BRASIL,****,18/06/2011,09:06:00,SIM,ATIVA,IG-551/CENIPA/2016,SIM,2019-10-28,1,1,SIM,2011,"APLICAÇÃO DE COMANDOS,CONDIÇÕES METEOROLÓGICAS ADVERSAS,INDISCIPLINA DE VOO,JULGAMENTO DE PILOTAGEM",4,0,3,0,1,0,***,AVIÃO,EMBRAER,EMB-500,E50P,JATO,BIMOTOR,7.0,2009.0,BRASIL,BRASIL,PARTICULAR,FORA DE AERODROMO,FORA DE AERODROMO,CORRIDA APÓS POUSO,PRIVADA,LEVE,0
195,195,44660,44660,44660,44660,44660,ACIDENTE,-16.6455555556,-39.095,PORTO SEGURO,BA,BRASIL,****,17/06/2011,21:49:00,SIM,FINALIZADA,A-092/CENIPA/2012,SIM,2012-08-07,9,1,NÃO,2011,"ATENÇÃO,ATITUDE,CONDIÇÕES METEOROLÓGICAS ADVERSAS,ESTADO EMOCIONAL,ESTRESSE,FORMAÇÃO, CAPACITAÇÃO E TREINAMENTO,INDISCIPLINA DE VOO,JULGAMENTO DE PILOTAGEM,MOTIVAÇÃO,OUTRO FATOR,PERCEPÇÃO,PLANEJAMENTO DE VOO,PLANEJAMENTO GERENCIAL,PROCESSO DECISÓRIO,RELAÇÕES INTERPESSOAIS,SISTEMAS DE APOIO,SOBRECARGA DE TAREFAS,SUPERVISÃO GERENCIAL",18,11,5,0,1,1,PARTICULAR,HELICÓPTERO,EUROCOPTER FRANCE,AS 350 B2,AS50,TURBOEIXO,MONOMOTOR,6.0,2008.0,BRASIL,BRASIL,PARTICULAR,PORTO SEGURO,CONDOMÍNIO JACUMÃ OCEAN RESORT,CRUZEIRO,PRIVADA,DESTRUÍDA,7
196,196,44661,44661,44661,44661,44661,INCIDENTE GRAVE,-23.1344444444,-43.4052777778,RIO DE JANEIRO,RJ,BRASIL,****,17/06/2011,11:59:00,SIM,FINALIZADA,IG-011/CENIPA/2013,SIM,2013-09-19,10,1,NÃO,2011,"APLICAÇÃO DE COMANDOS,CONHECIMENTO DE NORMAS (ATS),COORDENAÇÃO DE CABINE,FORMAÇÃO, CAPACITAÇÃO E TREINAMENTO,OUTRO FATOR",5,1,3,0,0,1,REGULAR,AVIÃO,AIRBUS INDUSTRIE,A319-132,A319,JATO,BIMOTOR,154.0,1999.0,BRASIL,BRASIL,REGULAR,SANTOS DUMONT,TANCREDO NEVES,SUBIDA,REGULAR,LEVE,0
197,197,44775,44775,44775,44775,44775,ACIDENTE,0.8033333333,-55.905,ÓBIDOS,PA,BRASIL,****,01/07/2011,19:25:00,SIM,FINALIZADA,A-104/CENIPA/2012,SIM,2012-09-20,5,1,NÃO,2011,"ATENÇÃO,CONDIÇÕES METEOROLÓGICAS ADVERSAS,CULTURA ORGANIZACIONAL,ESTADO EMOCIONAL,JULGAMENTO DE PILOTAGEM,MOTIVAÇÃO,PLANEJAMENTO DE VOO,PROCESSO DECISÓRIO,SUPERVISÃO GERENCIAL",9,5,3,0,1,0,TÁXI AÉREO,AVIÃO,EMBRAER,EMB-810D,PA34,PISTÃO,BIMOTOR,6.0,1982.0,BRASIL,BRASIL,TÁXI AÉREO,FORA DE AERODROMO,FORA DE AERODROMO,CRUZEIRO,TÁXI AÉREO,DESTRUÍDA,4
198,198,44796,44796,44796,44796,44796,ACIDENTE,-8.1522222222,34.9094444444,RECIFE,PE,BRASIL,SBRF,13/07/2011,09:54:00,SIM,FINALIZADA,A-019/CENIPA/2013,SIM,2013-07-18,23,1,NÃO,2011,"ANSIEDADE,APLICAÇÃO DE COMANDOS,ATITUDE,COORDENAÇÃO DE CABINE,CULTURA DO GRUPO DE TRABALHO,CULTURA ORGANIZACIONAL,DINÂMICA DE EQUIPE,ESQUECIMENTO DO PILOTO,ESTADO EMOCIONAL,ESTRESSE,FABRICAÇÃO,FORMAÇÃO, CAPACITAÇÃO E TREINAMENTO,INSTRUÇÃO,JULGAMENTO DE PILOTAGEM,PROCESSO DECISÓRIO,PROJETO,RELAÇÕES INTERPESSOAIS,SUPERVISÃO GERENCIAL",18,10,6,2,0,0,REGULAR,AVIÃO,AIRCRAFT INDUSTRIES,L410UVP-E20,L410,TURBOÉLICE,BIMOTOR,21.0,2010.0,BRASIL,BRASIL,REGULAR,GUARARAPES - GILBERTO FREYRE,AUGUSTO SEVERO,DECOLAGEM,REGULAR,DESTRUÍDA,16
199,199,44817,44817,44817,44817,44817,ACIDENTE,-8.7936111111,-63.8580555556,PORTO VELHO,RO,BRASIL,SWRO,12/07/2011,21:20:00,SIM,FINALIZADA,A-019/CENIPA/2014,SIM,2014-06-02,2,1,NÃO,2011,"APLICAÇÃO DE COMANDOS,COORDENAÇÃO DE CABINE,INSTRUÇÃO,JULGAMENTO DE PILOTAGEM,PLANEJAMENTO DE VOO,POUCA EXPERIÊNCIA DO PILOTO,SUPERVISÃO GERENCIAL",7,0,7,0,0,0,INSTRUÇÃO,AVIÃO,AERO BOERO,AB-115,AB11,PISTÃO,MONOMOTOR,2.0,1993.0,BRASIL,BRASIL,INSTRUÇÃO,AEROCLUBE DE RONDÔNIA,AEROCLUBE DE RONDÔNIA,APROXIMAÇÃO FINAL,INSTRUÇÃO,SUBSTANCIAL,0
200,200,44837,44837,44837,44837,44837,ACIDENTE,-16.0455555556,-57.635,CÁCERES,MT,BRASIL,SWKC,14/07/2011,10:30:00,SIM,FINALIZADA,A-093/CENIPA/2012,SIM,2012-08-29,1,1,NÃO,2011,"JULGAMENTO DE PILOTAGEM,PLANEJAMENTO DE VOO",2,0,2,0,0,0,PARTICULAR,AVIÃO,NEIVA INDUSTRIA AERONAUTICA,EMB-711C,P28R,PISTÃO,MONOMOTOR,4.0,1976.0,BRASIL,BRASIL,PARTICULAR,FAZENDA SOROTECA,CÁCERES,CIRCUITO DE TRÁFEGO,PRIVADA,SUBSTANCIAL,0
201,201,44838,44838,44838,44838,44838,ACIDENTE,-14.815,-39.0333333333,ILHÉUS,BA,BRASIL,SBIL,14/07/2011,00:35:00,SIM,FINALIZADA,A-116/CENIPA/2012,SIM,2012-10-17,6,1,SIM,2011,"APLICAÇÃO DE COMANDOS,MANUTENÇÃO DE AERONAVE,OUTRO FATOR,SUPERVISÃO GERENCIAL",4,0,3,0,0,1,TÁXI AÉREO,AVIÃO,MITSUBISHI,MU-2B-60,MU2,TURBOÉLICE,BIMOTOR,10.0,1981.0,BRASIL,BRASIL,TÁXI AÉREO,DEPUTADO LUÍS EDUARDO MAGALHÃES,BAHIA - JORGE AMADO,POUSO,TÁXI AÉREO,LEVE,0
202,202,44853,44853,44853,44853,44853,ACIDENTE,23.3944444444,46.8180555556,CAJAMAR,SP,BRASIL,****,18/07/2011,12:50:00,SIM,FINALIZADA,A-516/CENIPA/2016,SIM,2016-06-23,2,1,NÃO,2011,"APLICAÇÃO DE COMANDOS,ATENÇÃO,FORMAÇÃO, CAPACITAÇÃO E TREINAMENTO,INSTRUÇÃO,PERCEPÇÃO,PROCESSO DECISÓRIO,SUPERVISÃO GERENCIAL",7,4,3,0,0,0,INSTRUÇÃO,HELICÓPTERO,ROBINSON HELICOPTER,R22,R22,PISTÃO,MONOMOTOR,2.0,2001.0,BRASIL,BRASIL,INSTRUÇÃO,FORA DE AERODROMO,FORA DE AERODROMO,ARREMETIDA NO SOLO,INSTRUÇÃO,***,0
203,203,44855,44855,44855,44855,44855,ACIDENTE,-26.55,-49.0833333333,JARAGUÁ DO SUL,SC,BRASIL,****,15/07/2011,12:25:00,SIM,FINALIZADA,A-543CENIPA2015,SIM,2016-11-11,1,1,NÃO,2011,"ATITUDE,CLIMA ORGANIZACIONAL,CONDIÇÕES METEOROLÓGICAS ADVERSAS,ESTRESSE,MOTIVAÇÃO,PERCEPÇÃO,PLANEJAMENTO DE VOO,PROCESSO DECISÓRIO,RELAÇÕES INTERPESSOAIS",9,7,1,0,1,0,PARTICULAR,HELICÓPTERO,HELIBRAS,AS 350 B2,AS50,TURBOEIXO,MONOMOTOR,6.0,2011.0,BRASIL,BRASIL,PARTICULAR,FORA DE AERODROMO,MINISTRO VICTOR KONDER,SUBIDA,PRIVADA,SUBSTANCIAL,3
204,204,44879,44879,44879,44879,44879,ACIDENTE,-23.5083333333,-46.7972222222,OSASCO,SP,BRASIL,****,25/07/2011,17:25:00,SIM,FINALIZADA,A-523/CENIPA/2014,SIM,2014-08-22,0,1,NÃO,2011,"INSTRUÇÃO,POUCA EXPERIÊNCIA DO PILOTO",2,0,2,0,0,0,INSTRUÇÃO,HELICÓPTERO,ROBINSON HELICOPTER,R22,R22,PISTÃO,MONOMOTOR,2.0,1992.0,BRASIL,BRASIL,INSTRUÇÃO,CAMPO DE MARTE,CAMPO DE MARTE,OPERAÇÃO DE SOLO,INSTRUÇÃO,SUBSTANCIAL,0
205,205,44881,44881,44881,44881,44881,ACIDENTE,-25.1877777778,-50.1444444444,PONTA GROSSA,PR,BRASIL,SSZW,20/07/2011,20:00:00,SIM,ATIVA,A-520/CENIPA/2017,SIM,2017-12-30,1,1,NÃO,2011,"APLICAÇÃO DE COMANDOS,COMUNICAÇÃO,COORDENAÇÃO DE CABINE,DINÂMICA DE EQUIPE,OUTRO FATOR,POUCA EXPERIÊNCIA DO PILOTO",6,2,3,0,0,1,***,AVIÃO,NEIVA INDUSTRIA AERONAUTICA,56-C-1,PAUL,PISTÃO,MONOMOTOR,2.0,1963.0,BRASIL,BRASIL,INSTRUÇÃO,FORA DE AERODROMO,FORA DE AERODROMO,DECOLAGEM,INSTRUÇÃO,SUBSTANCIAL,0
206,206,44885,44885,44885,44885,44885,ACIDENTE,"-19,9625","-43,9703",BELO HORIZONTE,MG,BRASIL,****,02/08/2011,13:02:00,SIM,FINALIZADA,A-547/CENIPA/2017,SIM,2018-09-24,3,1,NÃO,2011,"APLICAÇÃO DE COMANDOS,MANUTENÇÃO DE AERONAVE,PESSOAL DE APOIO,PLANEJAMENTO GERENCIAL,PROJETO",5,0,4,1,0,0,***,HELICÓPTERO,BELL HELICOPTER,206B,B06,TURBOEIXO,MONOMOTOR,5.0,1993.0,BRASIL,BRASIL,PARTICULAR,VIGANÓ I,PASSA TEMPO,CRUZEIRO,PRIVADA,SUBSTANCIAL,0
207,207,44887,44887,44887,44887,44887,INCIDENTE GRAVE,***,***,MARITUBA,PA,BRASIL,****,19/07/2011,16:30:00,SIM,ATIVA,A DEFINIR,SIM,2019-10-28,0,1,NÃO,2011,MANUTENÇÃO DE AERONAVE,1,0,1,0,0,0,***,AVIÃO,NEIVA INDUSTRIA AERONAUTICA,EMB-711C,P28R,PISTÃO,MONOMOTOR,4.0,1976.0,BRASIL,BRASIL,PARTICULAR,FORA DE AERODROMO,FORA DE AERODROMO,DESCIDA,PRIVADA,LEVE,0
208,208,44888,44888,44888,44888,44888,INCIDENTE GRAVE,-25.5311111111,-49.1755555556,SÃO JOSÉ DOS PINHAIS,PR,BRASIL,SBCT,15/07/2011,17:05:00,SIM,FINALIZADA,IG-532/CENIPA/2015,SIM,2016-06-03,11,1,NÃO,2011,"INSTRUÇÃO,SISTEMAS DE APOIO",2,1,1,0,0,0,REGULAR,AVIÃO,LET AIRCRAFT INDUSTRIES,L410UVP-E20,L410,TURBOÉLICE,BIMOTOR,21.0,2007.0,BRASIL,BRASIL,REGULAR,FORA DE AERODROMO,FORA DE AERODROMO,SUBIDA,REGULAR,NENHUM,0
209,209,44926,44926,44926,44926,44926,INCIDENTE GRAVE,,,BELO HORIZONTE,MG,BRASIL,SBPR,11/08/2011,13:01:00,SIM,FINALIZADA,IG-619/CENIPA/2014,SIM,2015-03-20,0,1,NÃO,2011,MANUTENÇÃO DE AERONAVE,1,0,1,0,0,0,INSTRUÇÃO,AVIÃO,CESSNA AIRCRAFT,150F,C150,PISTÃO,MONOMOTOR,2.0,1966.0,BRASIL,BRASIL,INSTRUÇÃO,CARLOS PRATES,FORA DE AERODROMO,DECOLAGEM,INSTRUÇÃO,NENHUM,0
210,210,44944,44944,44944,44944,44944,ACIDENTE,-17.6502777778,-56.4866666667,CORUMBÁ,MS,BRASIL,****,10/06/2011,20:30:00,,FINALIZADA,A-026/CENIPA/2013,SIM,2013-07-30,4,2,NÃO,2011,"ATITUDE,INDISCIPLINA DE VOO,JULGAMENTO DE PILOTAGEM,MOTIVAÇÃO",4,2,2,0,0,0,EXPERIMENTAL,AVIÃO,***,N-592-420,ZZZZ,PISTÃO,MONOMOTOR,4.0,1968.0,BRASIL,BRASIL,EXPERIMENTAL,FORA DE AERODROMO,FORA DE AERODROMO,CRUZEIRO,EXPERIMENTAL,DESTRUÍDA,2
211,210,44944,44944,44944,44944,44944,ACIDENTE,-17.6502777778,-56.4866666667,CORUMBÁ,MS,BRASIL,****,10/06/2011,20:30:00,,FINALIZADA,A-026/CENIPA/2013,SIM,2013-07-30,4,2,NÃO,2011,"ATITUDE,INDISCIPLINA DE VOO,JULGAMENTO DE PILOTAGEM,MOTIVAÇÃO",4,2,2,0,0,0,PARTICULAR,AVIÃO,CESSNA AIRCRAFT,U206G,C206,PISTÃO,MONOMOTOR,6.0,1977.0,BRASIL,BRASIL,PARTICULAR,FORA DE AERODROMO,FORA DE AERODROMO,CRUZEIRO,PRIVADA,LEVE,0
212,211,44966,44966,44966,44966,44966,ACIDENTE,8.9122222222,35.5838888889,NOVO LINO,AL,BRASIL,****,15/08/2011,19:00:00,SIM,FINALIZADA,A-508/CENIPA/2016,SIM,2016-07-07,1,1,NÃO,2011,"ATENÇÃO,ATITUDE,PERCEPÇÃO,PLANEJAMENTO DE VOO,PROCESSO DECISÓRIO,SISTEMAS DE APOIO",6,5,1,0,0,0,ESPECIALIZADA,AVIÃO,NEIVA INDUSTRIA AERONAUTICA,EMB-201,IPAN,PISTÃO,MONOMOTOR,1.0,1976.0,BRASIL,BRASIL,ESPECIALIZADA,FORA DE AERODROMO,FORA DE AERODROMO,OUTRA FASE,ESPECIALIZADA,LEVE,0
213,212,44967,44967,44967,44967,44967,ACIDENTE,-30.1877777778,-51.1827777778,PORTO ALEGRE,RS,BRASIL,****,15/08/2011,17:10:00,SIM,ATIVA,A-533/CENIPA/2017,SIM,2018-06-25,2,1,SIM,2011,"ESQUECIMENTO DO PILOTO,INSTRUÇÃO,MANUTENÇÃO DE AERONAVE,MEMÓRIA,SUPERVISÃO GERENCIAL",5,1,4,0,0,0,***,AVIÃO,PIPER AIRCRAFT,PA-39,PA30,PISTÃO,BIMOTOR,6.0,1972.0,BRASIL,BRASIL,INSTRUÇÃO,SALGADO FILHO,BELÉM NOVO,POUSO,INSTRUÇÃO,SUBSTANCIAL,0
214,213,44968,44968,44968,44968,44968,INCIDENTE GRAVE,***,***,LONDRINA,PR,BRASIL,****,14/08/2011,11:45:00,SIM,ATIVA,IG-518/CENIPA/2017,SIM,2017-11-30,1,1,SIM,2011,"APLICAÇÃO DE COMANDOS,CULTURA ORGANIZACIONAL,INSTRUÇÃO,POUCA EXPERIÊNCIA DO PILOTO,SUPERVISÃO GERENCIAL",5,1,4,0,0,0,***,AVIÃO,AERO BOERO,AB-115,AB11,PISTÃO,MONOMOTOR,2.0,1992.0,BRASIL,BRASIL,INSTRUÇÃO,FORA DE AERODROMO,FORA DE AERODROMO,POUSO,INSTRUÇÃO,NENHUM,0
215,214,44969,44969,44969,44969,44969,INCIDENTE GRAVE,***,***,LONDRINA,PR,BRASIL,SBLO,13/08/2011,19:15:00,,FINALIZADA,IG-519/CENIPA/2017,NÃO,,0,1,NÃO,2011,"APLICAÇÃO DE COMANDOS,INSTRUÇÃO,JULGAMENTO DE PILOTAGEM,SUPERVISÃO GERENCIAL",4,0,4,0,0,0,INSTRUÇÃO,AVIÃO,AERO BOERO,AB-115,AB11,PISTÃO,MONOMOTOR,2.0,1992.0,BRASIL,BRASIL,INSTRUÇÃO,FORA DE AERODROMO,FORA DE AERODROMO,ARREMETIDA NO SOLO,INSTRUÇÃO,LEVE,0
